stop_id,stop_code,stop_name,stop_desc,stop_lat,stop_lon,location_type,parent_station
21209,910,POLE MULTIMODAL,PEM1,+49.107560,+06.177989,0,10619
10619,PEM,POLE MULTIMODAL,,+49.107501,+06.177698,1,
20197,141,ARENES,,+49.106035,+06.173556,0,10093
10093,ARENE,ARENES,,+49.105965,+06.173556,1,
20111,142,ROI GEORGE,,+49.110559,+06.171241,0,10054
10054,ROIGE,ROI GEORGE,,+49.110649,+06.170314,1,
21230,880,POINCARE,,+49.116926,+06.168840,0,10629
10629,poinc,POINCARE,,+49.116814,+06.168722,1,
20165,22,COMEDIE,,+49.120960,+06.172025,0,10072
10072,COMED,COMEDIE,,+49.120960,+06.172025,1,
20102,264,BELLE-ISLE,,+49.121261,+06.168798,0,10049
10049,6BE,BELLE-ISLE,,+49.121261,+06.168798,1,
20100,265,FORT MOSELLE,,+49.124845,+06.164707,0,10048
10048,FORTM,FORT MOSELLE,,+49.124460,+06.164864,1,
20518,395,TIGNOMONT,,+49.127595,+06.160145,0,10047
10047,TIGNO,TIGNOMONT,,+49.126804,+06.159731,1,
20475,396,COLIBRI,,+49.130071,+06.158906,0,10238
10238,2COLI,COLIBRI,,+49.130172,+06.158645,1,
20473,397,LE MOYNE,,+49.131298,+06.156734,0,10237
10237,LEMOY,LE MOYNE,,+49.131365,+06.156508,1,
20471,398,N. JUNG,,+49.133359,+06.153132,0,10236
10236,JUNG,N. JUNG,,+49.133504,+06.152807,1,
20469,399,LORRY,,+49.135534,+06.149240,0,10235
10235,Lorry,LORRY,,+49.135455,+06.149290,1,
20467,400,SANSONNET,,+49.136522,+06.147127,0,10234
10234,SANSO,SANSONNET,,+49.136426,+06.147192,1,
20909,728,FRIERES,,+49.140403,+06.135219,0,10468
10468,6FRIE,FRIERES,,+49.140274,+06.135370,1,
20911,729,CARREFOUR,,+49.144455,+06.127848,0,10469
10469,8CARR,CARREFOUR,,+49.144439,+06.127728,1,
20913,730,ATELIERS MUNICIPAUX,,+49.142520,+06.121790,0,10470
10470,ATELI,ATELIERS MUNICIPAUX,,+49.142504,+06.121901,1,
20915,731,LORRY GRAND RUE,,+49.141806,+06.118326,0,10471
10471,LORGR,LORRY GRAND RUE,,+49.141770,+06.118458,1,
20917,732,CHAPELLE,,+49.141731,+06.115640,0,10472
10472,10CHA,CHAPELLE,,+49.141697,+06.115701,1,
20919,733,CARRIERE,,+49.168981,+06.049968,0,10473
10473,11CAR,CARRIERE,,+49.169005,+06.050133,1,
20921,734,GRAND RUE,,+49.168660,+06.048524,0,10474
10474,12GRA,GRAND RUE,,+49.168615,+06.048465,1,
20923,735,AMANVILLERS MAIRIE,,+49.167352,+06.043792,0,10475
10475,Amanv,AMANVILLERS MAIRIE,,+49.167333,+06.043940,1,
20926,719,JUSTICE,,+49.166546,+06.038340,0,10477
10477,Justi,JUSTICE,,+49.166546,+06.038340,1,
21028,832,PETIT COEUR,,+49.166103,+06.040458,0,10531
10531,PTCOE,PETIT COEUR,,+49.166103,+06.040458,1,
20922,720,AMANVILLERS MAIRIE,,+49.167315,+06.044089,0,10475
20920,721,GRAND RUE,,+49.168571,+06.048406,0,10474
20925,798,DOUANIERS,,+49.169170,+06.049078,0,10476
10476,DOUAN,DOUANIERS,,+49.169581,+06.048429,1,
20984,799,CHAMP BANAL,,+49.173234,+06.045326,0,10511
10511,CBANA,CHAMP BANAL,,+49.172942,+06.045378,1,
20988,800,GRANDE FLAMEE,,+49.183115,+06.040279,0,10513
10513,GFLAM,GRANDE FLAMEE,,+49.182969,+06.040223,1,
20986,801,SAINT PRIVAT,,+49.186068,+06.037720,0,10512
10512,MSTPR,SAINT PRIVAT,,+49.186038,+06.037602,1,
20982,802,ABBE BAUZIN,,+49.189125,+06.036346,0,10510
10510,ABBEB,ABBE BAUZIN,,+49.189232,+06.035647,1,
20980,803,CONOT CHENOY,,+49.188728,+06.038486,0,10509
10509,CCONO,CONOT CHENOY,,+49.188757,+06.038523,1,
20978,804,JEAN MOULIN,,+49.187006,+06.044024,0,10508
10508,JMoul,JEAN MOULIN,,+49.187006,+06.044024,1,
20979,805,CONOT CHENOY,,+49.188786,+06.038560,0,10509
20981,806,ABBE BAUZIN,,+49.189340,+06.034948,0,10510
20985,807,SAINT PRIVAT,,+49.186009,+06.037485,0,10512
20987,808,GRANDE FLAMEE,,+49.182824,+06.040168,0,10513
20983,809,CHAMP BANAL,,+49.172650,+06.045430,0,10511
20924,810,DOUANIERS,,+49.169993,+06.047781,0,10476
20918,722,CARRIERE,,+49.169030,+06.050299,0,10473
20916,723,CHAPELLE,,+49.141664,+06.115763,0,10472
20914,724,LORRY GRAND RUE,,+49.141735,+06.118591,0,10471
20912,725,ATELIERS MUNICIPAUX,,+49.142488,+06.122013,0,10470
20910,726,CARREFOUR,,+49.144423,+06.127608,0,10469
20908,727,FRIERES,,+49.140146,+06.135521,0,10468
20466,409,SANSONNET,,+49.136331,+06.147258,0,10234
20468,410,LORRY,,+49.135377,+06.149340,0,10235
20470,411,N. JUNG,,+49.133650,+06.152483,0,10236
20472,412,LE MOYNE,,+49.131432,+06.156283,0,10237
20474,413,COLIBRI,,+49.130273,+06.158385,0,10238
20136,414,TIGNOMONT,,+49.127531,+06.160010,0,10047
20099,291,FORT MOSELLE,,+49.124075,+06.165021,0,10048
20024,122,SEROT,,+49.119758,+06.169770,0,10007
10007,SEROT,SEROT,,+49.119758,+06.169770,1,
21229,879,POINCARE,,+49.116703,+06.168605,0,10629
20291,67,VERLAINE,,+49.108180,+06.167951,0,10143
10143,VERLA,VERLAINE,,+49.108851,+06.167384,1,
20196,126,ARENES,,+49.105895,+06.173556,0,10093
21212,911,POLE MULTIMODAL,PEM5,+49.107450,+06.177414,0,10619
20769,622,FRANCLONCHAMPS,,+49.171161,+06.189857,0,10394
10394,FRANC,FRANCLONCHAMPS,,+49.171161,+06.189857,1,
20770,623,LA MAXE,,+49.168613,+06.189582,0,10395
10395,MAXE,LA MAXE,,+49.168653,+06.189551,1,
20772,624,CHENEVIERES,,+49.165766,+06.189568,0,10396
10396,CHENE,CHENEVIERES,,+49.165797,+06.189656,1,
20774,625,PIERRET,,+49.164096,+06.188652,0,10397
10397,5PIER,PIERRET,,+49.163816,+06.188608,1,
20776,626,CENTRALE,,+49.155008,+06.185911,0,10398
10398,CENTR,CENTRALE,,+49.154849,+06.186189,1,
20855,641,GOUJENOTTE,,+49.151666,+06.189128,0,10440
10440,1GOUJ,GOUJENOTTE,,+49.151719,+06.188585,1,
20778,627,GRANGE-AUX-DAMES,,+49.146147,+06.190660,0,10399
10399,DAMES,GRANGE-AUX-DAMES,,+49.146299,+06.190807,1,
20780,628,LES SILOS,,+49.140376,+06.186403,0,10400
10400,SILOS,LES SILOS,,+49.140552,+06.186841,1,
20782,629,PORT DE METZ,,+49.137322,+06.180787,0,10401
10401,PORTM,PORT DE METZ,,+49.137430,+06.180954,1,
20811,209,TCRM,,+49.128066,+06.185530,0,10419
10419,TCRM,TCRM,,+49.127722,+06.185036,1,
20678,612,BLIDA,,+49.125879,+06.181409,0,10348
10348,BLIDA,BLIDA,,+49.125785,+06.181426,1,
20192,170,RIMPORT,,+49.124126,+06.181019,0,10091
10091,RIMPO,RIMPORT,,+49.124273,+06.181587,1,
20194,171,ST GEORGES,,+49.122724,+06.178301,0,10092
10092,GEORG,ST GEORGES,,+49.122576,+06.178165,1,
21206,917,POLE MULTIMODAL,PEM8,+49.107628,+06.177904,0,10619
21207,916,POLE MULTIMODAL,PEM4,+49.107382,+06.177498,0,10619
20669,438,PREFECTURE,,+49.121497,+06.175702,0,10342
10342,Pref,PREFECTURE,,+49.121616,+06.175028,1,
20195,439,ST GEORGES,,+49.122428,+06.178030,0,10092
20193,440,RIMPORT,,+49.124420,+06.182156,0,10091
20679,594,BLIDA,,+49.125692,+06.181443,0,10348
20812,208,TCRM,,+49.127379,+06.184542,0,10419
20783,615,PORT DE METZ,,+49.137538,+06.181121,0,10401
20781,616,LES SILOS,,+49.140729,+06.187279,0,10400
20779,617,GRANGE-AUX-DAMES,,+49.146451,+06.190955,0,10399
20856,642,GOUJENOTTE,,+49.151773,+06.188043,0,10440
20777,618,CENTRALE,,+49.154691,+06.186467,0,10398
20775,619,PIERRET,,+49.163536,+06.188565,0,10397
20773,620,CHENEVIERES,,+49.165828,+06.189745,0,10396
20771,621,LA MAXE,,+49.168694,+06.189520,0,10395
21045,843,MARIEULLES,,+48.998756,+06.100187,0,10541
10541,Marie,MARIEULLES,,+48.998756,+06.100187,1,
21047,844,VEZON,,+49.006575,+06.094954,0,10542
10542,VEZON,VEZON,,+49.006557,+06.094890,1,
21049,845,FEY,,+49.029056,+06.096845,0,10543
10543,FEYEG,FEY,,+49.029065,+06.096717,1,
21051,846,GLISSU,,+49.055814,+06.119876,0,10544
10544,GLISS,GLISSU,,+49.055847,+06.119837,1,
20888,702,AUGNY MAIRIE,,+49.058702,+06.121926,0,10456
10456,AUGNY,AUGNY MAIRIE,,+49.058676,+06.121885,1,
20890,703,LIBERATION,,+49.061266,+06.118074,0,10457
10457,2LIBE,LIBERATION,,+49.061226,+06.117965,1,
20892,704,LOTISSEMENT,,+49.064034,+06.116671,0,10458
10458,Lotis,LOTISSEMENT,,+49.063769,+06.116536,1,
21214,871,ORLY,,+49.075875,+06.116839,0,10620
10620,orly,ORLY,,+49.075744,+06.116819,1,
20784,450,11ème D'AVIATION,,+49.085783,+06.146222,0,10402
10402,LEP,11ème D'AVIATION,,+49.085986,+06.145766,1,
21085,850,LUETTE,,+49.085191,+06.148565,0,10558
10558,Luett,LUETTE,,+49.085321,+06.148461,1,
20611,5106,JEANNE D'ARC,,+49.089674,+06.153626,0,10309
10309,JEANN,JEANNE D'ARC,,+49.089529,+06.153574,1,
20613,5361,PREVOTE,,+49.092832,+06.156508,0,10310
10310,1PREV,PREVOTE,,+49.092228,+06.155912,1,
20039,106,ST ANDRE,,+49.096016,+06.159141,0,10015
10015,STAND,ST ANDRE,,+49.095283,+06.158797,1,
20037,107,SEMINAIRE,,+49.098821,+06.161416,0,10014
10014,SEMIN,SEMINAIRE,,+49.098058,+06.160681,1,
20035,108,VAILLANT,,+49.100301,+06.162633,0,10013
10013,VAILL,VAILLANT,,+49.100017,+06.162263,1,
20033,109,MANGIN,,+49.102981,+06.164812,0,10012
10012,MANGI,MANGIN,,+49.102304,+06.164195,1,
20031,110,CHARLES PETRE,,+49.105118,+06.166607,0,10011
10011,CHARL,CHARLES PETRE,,+49.105247,+06.166612,1,
20029,111,BON SECOURS,,+49.107041,+06.168986,0,10010
10010,BONSE,BON SECOURS,,+49.107097,+06.168823,1,
20330,68,ROI GEORGE,,+49.109938,+06.170563,0,10054
21205,913,POLE MULTIMODAL,PEM6,+49.107502,+06.177571,0,10619
21208,912,POLE MULTIMODAL,PEM2,+49.107492,+06.177825,0,10619
20331,34,ROI GEORGE,,+49.110393,+06.169069,0,10054
20028,92,BON SECOURS,,+49.107153,+06.168661,0,10010
20030,93,CHARLES PETRE,,+49.105376,+06.166618,0,10011
20032,94,MANGIN,,+49.101628,+06.163578,0,10012
20034,95,VAILLANT,,+49.099734,+06.161893,0,10013
20036,96,SEMINAIRE,,+49.097296,+06.159947,0,10014
20614,5097,ST ANDRE,,+49.094818,+06.157941,0,10015
20612,5354,PREVOTE,,+49.091624,+06.155317,0,10310
20610,5524,JEANNE D'ARC,,+49.089656,+06.153652,0,10309
21086,851,LUETTE,,+49.085451,+06.148358,0,10558
21084,852,11ème D'AVIATION,,+49.086190,+06.145310,0,10402
21213,872,ORLY,,+49.075613,+06.116799,0,10620
20891,709,LOTISSEMENT,,+49.063505,+06.116401,0,10458
20889,710,LIBERATION,,+49.061187,+06.117857,0,10457
20887,711,AUGNY MAIRIE,,+49.058650,+06.121845,0,10456
21050,840,GLISSU,,+49.055881,+06.119799,0,10544
21048,841,FEY,,+49.029075,+06.096590,0,10543
21046,842,VEZON,,+49.006540,+06.094826,0,10542
20906,787,LE QUOITY,,+49.123278,+06.094878,0,10466
10466,LEQUO,LE QUOITY,,+49.123278,+06.094878,1,
20904,788,LESSY,,+49.120937,+06.094775,0,10465
10465,4LESS,LESSY,,+49.120937,+06.094775,1,
20902,789,ERMITAGE,,+49.118285,+06.096176,0,10464
10464,ERMIT,ERMITAGE,,+49.118311,+06.096334,1,
21004,736,LASSAUX,,+49.116189,+06.097918,0,10523
10523,LASSA,LASSAUX,,+49.116237,+06.097954,1,
21082,849,CHEMIN NOIR,,+49.114182,+06.097957,0,10557
10557,CHNOI,CHEMIN NOIR,,+49.114178,+06.098033,1,
20900,790,NOUILLONS,,+49.111846,+06.097379,0,10463
10463,NOUIL,NOUILLONS,,+49.111950,+06.097355,1,
20063,279,SERRET,,+49.109933,+06.099509,0,10030
10030,SERRE,SERRET,,+49.109943,+06.099705,1,
20065,280,ST JEAN,,+49.107987,+06.104914,0,10031
10031,STJEA,ST JEAN,,+49.107930,+06.105272,1,
20072,281,MOULINS,,+49.106365,+06.111226,0,10034
10034,MOULI,MOULINS,,+49.106116,+06.110979,1,
20073,275,MOULINS,,+49.106518,+06.111270,0,10034
20066,276,ST JEAN,,+49.107874,+06.105630,0,10031
20064,277,SERRET,,+49.109953,+06.099902,0,10030
20901,785,NOUILLONS,,+49.112055,+06.097331,0,10463
21083,848,CHEMIN NOIR,,+49.114174,+06.098109,0,10557
21005,718,LASSAUX,,+49.116285,+06.097991,0,10523
20903,786,ERMITAGE,,+49.118338,+06.096492,0,10464
20905,716,LESSY,,+49.120937,+06.094775,0,10465
20899,713,VAUX MAIRIE,,+49.093245,+06.080532,0,10462
10462,VAUXM,VAUX MAIRIE,,+49.093245,+06.080532,1,
21030,839,CARCAN,,+49.093696,+06.086799,0,10532
10532,1CARC,CARCAN,,+49.093742,+06.086876,1,
20898,714,VAL DE METZ,,+49.093270,+06.093404,0,10461
10461,3VALM,VAL DE METZ,,+49.093319,+06.092967,1,
20076,295,PREVILLE,,+49.102093,+06.104476,0,10036
10036,PREVI,PREVILLE,,+49.102093,+06.104476,1,
20897,715,VAL DE METZ,,+49.093368,+06.092531,0,10461
21029,838,CARCAN,,+49.093788,+06.086953,0,10532
20907,717,SCY-CHAZELLES,,+49.114118,+06.116556,0,10467
10467,5SCYC,SCY-CHAZELLES,,+49.114118,+06.116556,1,
21041,831,CRIMEE,,+49.114361,+06.112973,0,10538
10538,crime,CRIMEE,,+49.113961,+06.113274,1,
21000,814,R. SCHUMAN,,+49.110626,+06.112125,0,10521
10521,RSCHU,R. SCHUMAN,,+49.110742,+06.111989,1,
21002,813,CHENEAU,,+49.108874,+06.120752,0,10522
10522,2CHEN,CHENEAU,,+49.108892,+06.120800,1,
20853,263,EN PRILLE,,+49.109480,+06.126021,0,10439
10439,ENPRI,EN PRILLE,,+49.109443,+06.125656,1,
20852,262,EN PRILLE,,+49.109407,+06.125291,0,10439
21003,812,CHENEAU,,+49.108910,+06.120849,0,10522
21001,811,R. SCHUMAN,,+49.110858,+06.111853,0,10521
21042,830,CRIMEE,,+49.113562,+06.113576,0,10538
21211,914,POLE MULTIMODAL,PEM3,+49.107431,+06.177643,0,10619
21150,796,Centre POMPIDOU,,+49.108298,+06.180342,0,10554
10554,Pompi,Centre POMPIDOU,,+49.108393,+06.180398,1,
20349,198,MAZELLE,,+49.114821,+06.184905,0,10172
10172,MAZEL,MAZELLE,,+49.114557,+06.183588,1,
20478,363,MAGINOT,,+49.116871,+06.185283,0,10240
10240,2MAGI,MAGINOT,,+49.116871,+06.185283,1,
20543,476,ARSENAL,,+49.123384,+06.187981,0,10271
10271,ARSEN,ARSENAL,,+49.122928,+06.187977,1,
20541,478,TANNERIES,,+49.126925,+06.193033,0,10270
10270,TANNE,TANNERIES,,+49.126976,+06.192943,1,
20539,479,BILLOTTE,,+49.125468,+06.197392,0,10269
10269,BILLO,BILLOTTE,,+49.125686,+06.197049,1,
20537,480,DUNANT,,+49.123836,+06.202300,0,10268
10268,DUNAN,DUNANT,,+49.123764,+06.202839,1,
20535,481,JOUSSE,,+49.122876,+06.206871,0,10267
10267,JOUSS,JOUSSE,,+49.122964,+06.206574,1,
20533,482,JUGAN,,+49.122294,+06.213355,0,10266
10266,JUGAN,JUGAN,,+49.122397,+06.212785,1,
20531,483,CORCHADE,,+49.123155,+06.215441,0,10265
10265,CORCH,CORCHADE,,+49.123130,+06.215389,1,
20529,484,JP JEAN,,+49.125669,+06.217188,0,10264
10264,JPJEA,JP JEAN,,+49.125730,+06.217346,1,
20527,485,SAULNOIS,,+49.126457,+06.222068,0,10263
10263,SAULN,SAULNOIS,,+49.126450,+06.221952,1,
20525,486,MY MANGENOT,,+49.127851,+06.225813,0,10262
10262,MYMAN,MY MANGENOT,,+49.127831,+06.225641,1,
20523,487,BARBE,,+49.129329,+06.229601,0,10261
10261,BARBE,BARBE,,+49.129479,+06.229805,1,
20521,562,FONNY,,+49.129500,+06.234914,0,10260
10260,1FONN,FONNY,,+49.129545,+06.234973,1,
20944,753,RUE DE METZ,,+49.133048,+06.253470,0,10487
10487,16RUE,RUE DE METZ,,+49.132983,+06.253171,1,
21035,834,PRESSOIR,,+49.135190,+06.257154,0,10534
10534,1pres,PRESSOIR,,+49.135180,+06.257054,1,
20946,754,NOUILLY CENTRE,,+49.135925,+06.258621,0,10488
10488,CNOUI,NOUILLY CENTRE,,+49.135997,+06.258564,1,
20948,755,PINOTS MELES,,+49.134379,+06.271577,0,10489
10489,MPINO,PINOTS MELES,,+49.134432,+06.271087,1,
21033,835,PENSEES,,+49.134655,+06.273923,0,10533
10533,PENSE,PENSEES,,+49.134709,+06.273744,1,
20950,756,LES CHAULMES,,+49.134104,+06.275770,0,10490
10490,LCHAU,LES CHAULMES,,+49.133829,+06.275946,1,
21554,861,MAS AU LIEVRE,,+49.131539,+06.275074,0,10491
10491,MASAU,MAS AU LIEVRE,,+49.131665,+06.275070,1,
21553,862,ROUTE DE BOULAY,,+49.126606,+06.267710,0,10790
10790,RTEBO,ROUTE DE BOULAY,,+49.126649,+06.271740,1,
21552,863,ROUTE DE BOULAY,,+49.126692,+06.275770,0,10790
20951,748,MAS AU LIEVRE,,+49.131792,+06.275067,0,10491
20949,749,LES CHAULMES,,+49.133555,+06.276123,0,10490
21032,836,PENSEES,,+49.134764,+06.273566,0,10533
20947,750,PINOTS MELES,,+49.134485,+06.270597,0,10489
20945,751,NOUILLY CENTRE,,+49.136069,+06.258508,0,10488
21034,837,PRESSOIR,,+49.135170,+06.256955,0,10534
20943,752,RUE DE METZ,,+49.132918,+06.252872,0,10487
20520,564,FONNY,,+49.129590,+06.235033,0,10260
20522,488,BARBE,,+49.129630,+06.230010,0,10261
20524,489,MY MANGENOT,,+49.127811,+06.225470,0,10262
20526,490,SAULNOIS,,+49.126443,+06.221837,0,10263
20528,491,JP JEAN,,+49.125791,+06.217504,0,10264
20530,492,CORCHADE,,+49.123105,+06.215337,0,10265
20532,493,JUGAN,,+49.122500,+06.212216,0,10266
20534,494,JOUSSE,,+49.123052,+06.206278,0,10267
20536,495,DUNANT,,+49.123693,+06.203378,0,10268
20538,496,BILLOTTE,,+49.125904,+06.196706,0,10269
20540,497,TANNERIES,,+49.127027,+06.192853,0,10270
20542,499,ARSENAL,,+49.122473,+06.187973,0,10271
20514,556,TANNEURS,,+49.119442,+06.181847,0,10258
10258,1TANN,TANNEURS,,+49.119442,+06.181847,1,
20516,393,PARAIGES,,+49.117189,+06.179771,0,10259
10259,PARAI,PARAIGES,,+49.117189,+06.179771,1,
20350,176,HAUTE-SEILLE,,+49.115234,+06.181713,0,10173
10173,SEILL,HAUTE-SEILLE,,+49.115234,+06.181713,1,
21239,888,MAZELLE,,+49.114293,+06.182271,0,10172
21152,797,Centre POMPIDOU,,+49.108441,+06.180427,0,10554
21210,915,POLE MULTIMODAL,PEM7,+49.107563,+06.177741,0,10619
21215,791,CHANTRENNE,,+49.145226,+06.005294,0,10621
10621,CHANT,CHANTRENNE,,+49.145226,+06.005294,1,
21396,771,VERNEVILLE,,+49.145226,+06.005294,0,10707
10707,VeRNE,VERNEVILLE,,+49.145155,+06.005555,1,
21096,792,TELEGRAPHE,,+49.146915,+06.003114,0,10566
10566,TELEG,TELEGRAPHE,,+49.146859,+06.003089,1,
20963,772,MALMAISON,,+49.124887,+06.017052,0,10498
10498,MALMA,MALMAISON,,+49.124963,+06.016980,1,
21401,887,VERLIN,,+49.113300,+06.027807,0,10710
10710,VERLI,VERLIN,,+49.113327,+06.027883,1,
20959,774,RUE D'ARS,,+49.111687,+06.028925,0,10496
10496,17RUE,RUE D'ARS,,+49.111835,+06.028919,1,
21087,795,EGLISE,,+49.109085,+06.030246,0,10559
10559,2EGLI,EGLISE,,+49.109124,+06.030322,1,
21010,824,VERDUN,,+49.080076,+06.058153,0,10525
10525,Verdu,VERDUN,,+49.080122,+06.058124,1,
21017,825,SCHWALBACH,,+49.079248,+06.065779,0,10528
10528,SCHWA,SCHWALBACH,,+49.079272,+06.065820,1,
21019,826,ARS SUR MOSELLE,,+49.075693,+06.076565,0,10529
10529,AMOSE,ARS SUR MOSELLE,,+49.075785,+06.076639,1,
21013,827,CLEMENCEAU,,+49.080944,+06.084693,0,10526
10526,ACLEM,CLEMENCEAU,,+49.080543,+06.084330,1,
21021,828,HLM,,+49.083369,+06.087056,0,10530
10530,HLMAM,HLM,,+49.083259,+06.086845,1,
21015,829,RD6,,+49.092990,+06.094943,0,10527
10527,RD6,RD6,,+49.093432,+06.095162,1,
20080,84,LORRAINE,,+49.102676,+06.109230,0,10038
10038,LORRA,LORRAINE,,+49.102244,+06.108765,1,
20110,89,ROI GEORGE,,+49.111706,+06.170383,0,10054
21023,818,LORRAINE,,+49.101225,+06.107976,0,10038
21014,819,RD6,,+49.093875,+06.095382,0,10527
21020,820,HLM,,+49.083150,+06.086634,0,10530
21012,821,CLEMENCEAU,,+49.080143,+06.083968,0,10526
21018,822,ARS SUR MOSELLE,,+49.075878,+06.076714,0,10529
21016,823,SCHWALBACH,,+49.079296,+06.065861,0,10528
21103,853,VERDUN,,+49.080169,+06.058095,0,10525
21088,793,EGLISE,,+49.109163,+06.030398,0,10559
21100,778,RUE D'ARS,,+49.111983,+06.028914,0,10496
21402,889,VERLIN,,+49.113355,+06.027959,0,10710
20964,768,MALMAISON,,+49.125040,+06.016909,0,10498
21097,770,TELEGRAPHE,,+49.146804,+06.003065,0,10566
21397,769,VERNEVILLE,,+49.145085,+06.005816,0,10707
20894,705,ZAC D'AUGNY,,+49.075077,+06.106751,0,10459
10459,ZACAU,ZAC D'AUGNY,,+49.074625,+06.107196,1,
20896,706,ACTISUD DUNIL,,+49.076518,+06.102840,0,10460
10460,ACTIS,ACTISUD DUNIL,,+49.076492,+06.102891,1,
21413,958b,GRAVIERES,,+49.078724,+06.111973,0,10716
10716,Gravi,GRAVIERES,,+49.078724,+06.111973,1,
20271,76,TOURNEBRIDE,,+49.086098,+06.112645,0,10133
10133,TOURN,TOURNEBRIDE,,+49.086098,+06.112645,1,
21412,958,GRAVIERES,,+49.078724,+06.111973,0,10716
20895,707,ACTISUD DUNIL,,+49.076466,+06.102942,0,10460
20893,708,ZAC D'AUGNY,,+49.074174,+06.107641,0,10459
21089,794,LAQUENEXY,,+49.078940,+06.316329,0,10560
10560,Laque,LAQUENEXY,,+49.078940,+06.316329,1,
21430,962,CHEVROTTES,,+49.092791,+06.274357,0,10720
10720,CHEVR,CHEVROTTES,,+49.092729,+06.274441,1,
20664,429,AUBIGNY,,+49.094220,+06.269894,0,10341
10341,AUBIG,AUBIGNY,,+49.094220,+06.269894,1,
20849,454,ARS LAQUENEXY,,+49.092812,+06.270065,0,10437
10437,LAQUE,ARS LAQUENEXY,,+49.092795,+06.270208,1,
21102,575,ENIM,,+49.094288,+06.229231,0,10568
10568,Enim,ENIM,,+49.094162,+06.229150,1,
20425,576,ARAGO,,+49.101754,+06.224243,0,10212
10212,ARAGO,ARAGO,,+49.101085,+06.222855,1,
20647,469,BERGSON,,+49.108586,+06.220737,0,10331
10331,bergs,BERGSON,,+49.108538,+06.220629,1,
20306,23,PROVENCE,,+49.112996,+06.215892,0,10150
10150,PROVE,PROVENCE,,+49.112606,+06.215875,1,
20343,195,ST MAXIMIN,,+49.105825,+06.196758,0,10168
10168,Maxim,ST MAXIMIN,,+49.105737,+06.196728,1,
20296,28,LACRETELLE,,+49.111945,+06.186621,0,10145
10145,LACRE,LACRETELLE,,+49.111630,+06.187414,1,
20295,177,LACRETELLE,,+49.111227,+06.187343,0,10145
20342,181,ST MAXIMIN,,+49.105649,+06.196698,0,10168
20307,11,PROVENCE,,+49.112216,+06.215858,0,10150
20646,553,BERGSON,,+49.108491,+06.220521,0,10331
20424,577,ARAGO,,+49.101363,+06.224116,0,10212
21101,854,ENIM,,+49.094037,+06.229070,0,10568
20848,453,ARS LAQUENEXY,,+49.092779,+06.270352,0,10437
21429,961,CHEVROTTES,,+49.092667,+06.274526,0,10720
20112,232,DEMBOUR,,+49.106519,+06.179210,0,10055
10055,DEMBO,DEMBOUR,,+49.106361,+06.179303,1,
20114,233,LEMUD,,+49.104148,+06.179543,0,10056
10056,LEMUD,LEMUD,,+49.104011,+06.179634,1,
20116,234,PIERNE,,+49.102553,+06.179745,0,10057
10057,PIERN,PIERNE,,+49.102413,+06.179811,1,
20118,235,LOTHAIRE,,+49.099570,+06.180289,0,10058
10058,LOTHA,LOTHAIRE,,+49.099424,+06.180395,1,
20120,237,VANDERNOOT,,+49.095549,+06.180628,0,10059
10059,2VAND,VANDERNOOT,,+49.095652,+06.180676,1,
20122,238,BOUCHOTTE,,+49.092488,+06.181196,0,10060
10060,BOUCH,BOUCHOTTE,,+49.092550,+06.181266,1,
20124,239,FRECOT,,+49.091349,+06.181371,0,10061
10061,FRECO,FRECOT,,+49.090989,+06.181545,1,
20126,240,SUR-LE-GUE,,+49.086018,+06.182328,0,10062
10062,LEGUE,SUR-LE-GUE,,+49.086160,+06.182367,1,
20128,241,FAUBOURG,,+49.084230,+06.182744,0,10063
10063,FAUBO,FAUBOURG,,+49.084322,+06.182802,1,
20159,242,ST ROCH,,+49.078376,+06.183774,0,10078
10078,STROC,ST ROCH,,+49.078738,+06.183970,1,
20157,306,PETIT-CLOU,,+49.074770,+06.184236,0,10077
10077,PCLOU,PETIT-CLOU,,+49.075662,+06.184159,1,
20155,307,ACACIAS,,+49.073202,+06.184489,0,10076
10076,ACACI,ACACIAS,,+49.073324,+06.184537,1,
20968,776,POUILLY,,+49.049845,+06.188245,0,10501
10501,CPOUI,POUILLY,,+49.049834,+06.188339,1,
20970,777,COLOMBIER,,+49.048281,+06.185562,0,10502
10502,PCOLO,COLOMBIER,,+49.048253,+06.185587,1,
20974,779,MAHIRE,,+49.050078,+06.184572,0,10504
10504,MAHIR,MAHIRE,,+49.050078,+06.184572,1,
20021,119,CITE U,,+49.120224,+06.159604,0,10004
10004,UNI,CITE U,,+49.120224,+06.159604,1,
20022,118,LETTRES,,+49.120793,+06.162896,0,10005
10005,LETTR,LETTRES,,+49.120793,+06.162896,1,
20023,117,SCIENCES,,+49.120615,+06.165188,0,10006
10006,SCIEN,SCIENCES,,+49.120615,+06.165188,1,
20010,32,REPUBLIQUE,,+49.115655,+06.173539,0,10001
10001,REPU,REPUBLIQUE,,+49.115326,+06.173456,1,
21191,869,GARE SNCF,,+49.111345,+06.176291,0,10002
10002,SNCF,GARE SNCF,,+49.111068,+06.176227,1,
20389,178,DUPLOYE,,+49.109411,+06.189032,0,10192
10192,DUPLO,DUPLOYE,,+49.109411,+06.189032,1,
20390,179,TROIS EVECHES,,+49.106289,+06.191827,0,10193
10193,TROIS,TROIS EVECHES,,+49.106289,+06.191827,1,
20391,180,DEVILLY,,+49.104960,+06.194459,0,10194
10194,DEVIL,DEVILLY,,+49.104960,+06.194459,1,
20340,182,GENDARMERIE,,+49.104579,+06.199729,0,10167
10167,GENDA,GENDARMERIE,,+49.104660,+06.199631,1,
21164,653,OBERLING,,+49.103866,+06.203033,0,10166
10166,1OBER,OBERLING,,+49.102993,+06.203162,1,
21166,654,ASPTT,,+49.108005,+06.204901,0,10599
10599,ASPT,ASPTT,,+49.108076,+06.204890,1,
20558,500,PEUPLIERS,,+49.105033,+06.210120,0,10280
10280,PEUPL,PEUPLIERS,,+49.105363,+06.209753,1,
20565,102,SYMPHONIE,,+49.104239,+06.214974,0,10209
10209,SYMPH,SYMPHONIE,,+49.104609,+06.214753,1,
20561,40,MARCONI,,+49.100535,+06.217985,0,10281
10281,MArco,MARCONI,,+49.100584,+06.217886,1,
20564,35,ARAGO,,+49.100530,+06.222060,0,10212
20426,565,LINIERES,,+49.097343,+06.224368,0,10213
10213,LINIE,LINIERES,,+49.097163,+06.224582,1,
20428,361,ENSAM,,+49.096128,+06.227245,0,10214
10214,ENSAM,ENSAM,,+49.096220,+06.226829,1,
21219,902,MATERNITE,,+49.083017,+06.238801,0,10624
10624,MATER,MATERNITE,,+49.083017,+06.238801,1,
21095,900,CHR MERCY,,+49.085487,+06.243075,0,10565
10565,CHR,CHR MERCY,,+49.085487,+06.243075,1,
21220,901,MATERNITE,,+49.083017,+06.238801,0,10624
20429,356,ENSAM,,+49.096312,+06.226414,0,10214
20427,190,LINIERES,,+49.096984,+06.224797,0,10213
20147,2,ARAGO,,+49.100696,+06.221001,0,10212
20560,63,MARCONI,,+49.100633,+06.217788,0,10281
20418,285,SYMPHONIE,,+49.104673,+06.214215,0,10209
20559,508,PEUPLIERS,,+49.105694,+06.209386,0,10280
21165,655,ASPTT,,+49.108148,+06.204879,0,10599
20339,193,OBERLING,,+49.103234,+06.202800,0,10166
20341,194,GENDARMERIE,,+49.104741,+06.199533,0,10167
20344,196,PUYMAIGRE,,+49.107066,+06.194766,0,10169
10169,PUYMA,PUYMAIGRE,,+49.107066,+06.194766,1,
20346,197,TREIZE,,+49.110119,+06.189559,0,10170
10170,TREIZ,TREIZE,,+49.110119,+06.189559,1,
20292,29,JEAN XXIII,,+49.112784,+06.182338,0,10144
10144,J-23,JEAN XXIII,,+49.112784,+06.182338,1,
21190,870,GARE SNCF,,+49.111722,+06.177286,0,10002
21189,667,PORTE SERP. (HARELLE),,+49.112688,+06.171667,0,10611
10611,HAREL,PORTE SERP. (HARELLE),,+49.112688,+06.171667,1,
20004,394,REPUBLIQUE,,+49.114860,+06.173456,0,10001
20107,144,ST JACQUES,,+49.118268,+06.176644,0,10052
10052,2STJA,ST JACQUES,,+49.118268,+06.176644,1,
20020,145,PLACE D'ARMES,,+49.119538,+06.175495,0,10003
10003,ARMES,PLACE D'ARMES,,+49.119616,+06.175635,1,
20056,116,SAULCY,,+49.120683,+06.168326,0,10024
10024,PLS,SAULCY,,+49.120683,+06.168326,1,
20057,121,BIBLIOTHEQUE,,+49.120490,+06.164445,0,10025
10025,BIBLI,BIBLIOTHEQUE,,+49.120490,+06.164445,1,
20058,120,LE MOIGNE,,+49.120421,+06.162431,0,10026
10026,LeMoi,LE MOIGNE,,+49.120421,+06.162431,1,
20790,591,AUBEPINE,,+49.071542,+06.193494,0,10405
10405,ABS,AUBEPINE,,+49.071542,+06.193494,1,
20151,586,VALERIANE,,+49.070881,+06.188790,0,10074
10074,VALER,VALERIANE,,+49.070941,+06.190727,1,
20154,587,ROSEAUX,,+49.071289,+06.185710,0,10075
10075,RSX,ROSEAUX,,+49.071261,+06.186211,1,
20156,588,ACACIAS,,+49.073447,+06.184585,0,10076
20158,589,PETIT-CLOU,,+49.076555,+06.184082,0,10077
20160,590,ST ROCH,,+49.079101,+06.184166,0,10078
20129,250,FAUBOURG,,+49.084414,+06.182861,0,10063
20127,251,SUR-LE-GUE,,+49.086303,+06.182406,0,10062
20125,252,FRECOT,,+49.090629,+06.181719,0,10061
20123,253,BOUCHOTTE,,+49.092612,+06.181337,0,10060
20121,254,VANDERNOOT,,+49.095755,+06.180724,0,10059
20119,256,LOTHAIRE,,+49.099278,+06.180501,0,10058
20117,257,PIERNE,,+49.102273,+06.179878,0,10057
20115,258,LEMUD,,+49.103874,+06.179726,0,10056
20113,259,DEMBOUR,,+49.106203,+06.179397,0,10055
20027,112,LAFAYETTE,,+49.107684,+06.171856,0,10009
10009,LAFAY,LAFAYETTE,,+49.107690,+06.172070,1,
20015,113,GARE SNCF,,+49.109839,+06.173874,0,10002
20008,173,REPUBLIQUE,,+49.114699,+06.173279,0,10001
20097,266,TIGNOMONT,,+49.125884,+06.159294,0,10047
20095,267,ST MARTIN,,+49.121739,+06.151237,0,10046
10046,STMAR,ST MARTIN,,+49.121618,+06.151047,1,
20093,229,FOCH,,+49.120605,+06.147488,0,10045
10045,FOCH,FOCH,,+49.120689,+06.148013,1,
20091,268,PONT DE VERDUN,,+49.119105,+06.143872,0,10044
10044,PONT,PONT DE VERDUN,,+49.119069,+06.144067,1,
20089,207,CASINO,,+49.116681,+06.140980,0,10043
10043,CASIN,CASINO,,+49.116551,+06.141214,1,
20087,270,MIGETTE,,+49.114024,+06.138556,0,10042
10042,MIGET,MIGETTE,,+49.114047,+06.138831,1,
20085,271,LONGEVILLE,,+49.112734,+06.135214,0,10041
10041,LONGE,LONGEVILLE,,+49.112534,+06.134798,1,
20083,272,LECLERC,,+49.110828,+06.129677,0,10040
10040,LECLE,LECLERC,,+49.110920,+06.130153,1,
20081,273,SCY BAS,,+49.108537,+06.121990,0,10039
10039,SCYBA,SCY BAS,,+49.108444,+06.121213,1,
20069,274,LIBERTE,,+49.107626,+06.116943,0,10033
10033,LIBER,LIBERTE,,+49.107477,+06.116533,1,
20858,278,HAIE BRULEE,,+49.111644,+06.095175,0,10029
10029,HaieB,HAIE BRULEE,,+49.111389,+06.095982,1,
21054,380,MAISON NEUVE,,+49.110290,+06.091101,0,10546
10546,MNve,MAISON NEUVE,,+49.110290,+06.091101,1,
20077,296,ARDECHE,,+49.101008,+06.106688,0,10037
10037,ARDEC,ARDECHE,,+49.101225,+06.106505,1,
20070,282,LIBERTE,,+49.107329,+06.116123,0,10033
20082,283,SCY BAS,,+49.108351,+06.120437,0,10039
20084,211,LECLERC,,+49.111013,+06.130629,0,10040
20086,212,LONGEVILLE,,+49.112335,+06.134383,0,10041
20088,213,MIGETTE,,+49.114070,+06.139107,0,10042
20090,214,CASINO,,+49.116421,+06.141448,0,10043
20092,288,PONT DE VERDUN,,+49.119034,+06.144262,0,10044
20094,515,FOCH,,+49.120773,+06.148538,0,10045
20096,289,ST MARTIN,,+49.121498,+06.150858,0,10046
20098,290,TIGNOMONT,,+49.126206,+06.159475,0,10047
20009,230,REPUBLIQUE,,+49.115721,+06.173388,0,10001
20016,90,GARE SNCF,,+49.109623,+06.174366,0,10002
20026,91,LAFAYETTE,,+49.107696,+06.172284,0,10009
20850,261,PLATEAU,,+49.081531,+06.185122,0,10438
10438,1PLAT,PLATEAU,,+49.081961,+06.184675,1,
20130,578,APREMONT,,+49.079329,+06.187963,0,10064
10064,APREM,APREMONT,,+49.079809,+06.187533,1,
20132,579,LA PLAINE,,+49.077934,+06.191975,0,10065
10065,PLAIN,LA PLAINE,,+49.078168,+06.191448,1,
20134,580,ROOSEVELT,,+49.076713,+06.194405,0,10066
10066,RLT,ROOSEVELT,,+49.076950,+06.194152,1,
20067,581,MAGNY-AU-BOIS,,+49.075431,+06.195350,0,10032
10032,MAGNY,MAGNY-AU-BOIS,,+49.075301,+06.195189,1,
20138,582,OBELLIANE,,+49.076163,+06.192663,0,10068
10068,OBELL,OBELLIANE,,+49.076075,+06.192738,1,
20140,583,ARMOISIERES,,+49.077312,+06.189445,0,10069
10069,1ARMO,ARMOISIERES,,+49.077225,+06.189655,1,
20142,584,BEAUSOLEIL,,+49.075723,+06.186822,0,10070
10070,BSOLE,BEAUSOLEIL,,+49.075759,+06.187006,1,
20144,585,HAUTS-DE-MAGNY,,+49.074047,+06.190765,0,10071
10071,HMAGN,HAUTS-DE-MAGNY,,+49.074096,+06.190774,1,
20071,86,MOULINS,,+49.105465,+06.110442,0,10034
20079,292,LORRAINE,,+49.102831,+06.109089,0,10038
20078,293,ARDECHE,,+49.101443,+06.106323,0,10037
20074,294,VIEILLES EAUX,,+49.103320,+06.105012,0,10035
10035,EAUX,VIEILLES EAUX,,+49.103320,+06.105012,1,
20859,658,CHATEL ST GERMAIN,,+49.122234,+06.081553,0,10442
10442,CSG,CHATEL ST GERMAIN,,+49.122234,+06.081553,1,
20863,659,CLERY,,+49.121184,+06.080518,0,10444
10444,1CL,CLERY,,+49.121184,+06.080518,1,
20864,660,CHAHURY,,+49.117661,+06.084813,0,10445
10445,1CH,CHAHURY,,+49.117661,+06.084813,1,
20861,661,CHEMIN DES DAMES,,+49.116918,+06.088182,0,10443
10443,CDD,CHEMIN DES DAMES,,+49.117089,+06.088010,1,
20867,323,HAIE BRULEE,,+49.111805,+06.095545,0,10029
20854,210,HAIE BRULEE,,+49.110720,+06.097227,0,10029
20153,308,ROSEAUX,,+49.071234,+06.186713,0,10075
20152,225,VALERIANE,,+49.071002,+06.192665,0,10074
20150,309,AUBEPINE,,+49.072259,+06.193105,0,10073
10073,ARP,AUBEPINE,,+49.072259,+06.193105,1,
20862,657,CHEMIN DES DAMES,,+49.117260,+06.087838,0,10443
20145,311,HAUTS-DE-MAGNY,,+49.074146,+06.190783,0,10071
20143,554,BEAUSOLEIL,,+49.075796,+06.187190,0,10070
20141,244,ARMOISIERES,,+49.077139,+06.189865,0,10069
20139,245,OBELLIANE,,+49.075987,+06.192814,0,10068
20148,246,MAGNY-AU-BOIS,,+49.075172,+06.195029,0,10032
20135,247,ROOSEVELT,,+49.077187,+06.193900,0,10066
20133,248,LA PLAINE,,+49.078403,+06.190922,0,10065
20131,249,APREMONT,,+49.080290,+06.187103,0,10064
20851,260,PLATEAU,,+49.082391,+06.184228,0,10438
20866,560,RN3,,+49.109673,+06.091020,0,10446
10446,RN3,RN3,,+49.109678,+06.091115,1,
20828,231,JUSSY - Ste RUFFINE,,+49.105111,+06.089326,0,10426
10426,JUSTR,JUSSY - Ste RUFFINE,,+49.105111,+06.089326,1,
20865,561,RN3,,+49.109684,+06.091210,0,10446
20019,172,PLACE D'ARMES,,+49.119991,+06.175829,0,10003
20104,85,MOULINS MAIRIE,,+49.106999,+06.106378,0,10082
10082,MAIRI,MOULINS MAIRIE,,+49.106999,+06.106378,1,
20884,124,CANONPRE,,+49.089813,+06.117236,0,10454
10454,CANON,CANONPRE,,+49.089840,+06.117188,1,
20882,101,3  HAIES,,+49.091098,+06.119915,0,10453
10453,3HAIE,3  HAIES,,+49.091220,+06.119734,1,
20248,9087,CONSTANTINE,,+49.091427,+06.126230,0,10121
10121,CONST,CONSTANTINE,,+49.091449,+06.126155,1,
20250,52,ST PIERRE,,+49.092513,+06.129579,0,10122
10122,SPIER,ST PIERRE,,+49.092513,+06.129579,1,
20266,80,ST PIERRE,,+49.093487,+06.132556,0,10130
10130,SP2,ST PIERRE,,+49.093294,+06.131734,1,
20268,81,ALGER,,+49.094357,+06.135257,0,10131
10131,ALGER,ALGER,,+49.094338,+06.135013,1,
20270,82,TOURAINE,,+49.095512,+06.138724,0,10132
10132,toura,TOURAINE,,+49.095335,+06.138015,1,
20263,59,ST QUENTIN,,+49.097305,+06.144397,0,10129
10129,SQ1,ST QUENTIN,,+49.097517,+06.143602,1,
20279,60,ST VICTOR,,+49.098273,+06.147471,0,10137
10137,VICTO,ST VICTOR,,+49.098132,+06.146860,1,
20281,61,LITALDUS,,+49.099935,+06.152666,0,10138
10138,LITAL,LITALDUS,,+49.099705,+06.151850,1,
20283,62,NATION,,+49.101279,+06.154658,0,10139
10139,NATIO,NATION,,+49.101307,+06.154631,1,
20285,64,EUROPA COURCELLES,,+49.101873,+06.158445,0,10140
10140,1ROSE,EUROPA COURCELLES,,+49.101998,+06.158590,1,
20287,65,BOTANIQUE,,+49.103928,+06.162672,0,10141
10141,BOTAN,BOTANIQUE,,+49.103832,+06.162363,1,
20289,66,GENIE,,+49.105477,+06.163709,0,10142
10142,1GENI,GENIE,,+49.105973,+06.163997,1,
20332,331,PTE SERPENOISE,,+49.112635,+06.171691,0,10053
10053,PTESE,PTE SERPENOISE,,+49.112617,+06.171541,1,
20012,1,REPUBLIQUE,,+49.115208,+06.173798,0,10001
20014,4,GARE SNCF,,+49.111815,+06.176944,0,10002
20294,6,LACRETELLE,,+49.111718,+06.188278,0,10145
20298,7,LEGOUEST,,+49.111620,+06.192153,0,10146
10146,2LEGO,LEGOUEST,,+49.111625,+06.191756,1,
21154,665,EDGAR REYLE,,+49.113414,+06.192463,0,10597
10597,EdREY,EDGAR REYLE,,+49.113216,+06.192544,1,
21156,663,PONT ROUGE,,+49.114977,+06.192800,0,10598
10598,PtRou,PONT ROUGE,,+49.115025,+06.192402,1,
20641,461,GANNE,,+49.115622,+06.205456,0,10328
10328,GANNE,GANNE,,+49.115442,+06.204799,1,
20642,462,BERNARD,,+49.114570,+06.211416,0,10329
10329,BERNA,BERNARD,,+49.115089,+06.210762,1,
20309,12,GUYENNE,,+49.113974,+06.219899,0,10151
10151,GUYEN,GUYENNE,,+49.112929,+06.218802,1,
20311,13,BORDES,,+49.114235,+06.222056,0,10152
10152,BORDE,BORDES,,+49.114392,+06.221714,1,
20818,993,BOURGOGNE,,+49.114178,+06.227007,0,10421
10421,4BOUR,BOURGOGNE,,+49.114225,+06.227030,1,
20317,549,CLOUTIERS,,+49.114797,+06.229451,0,10155
10155,CLOUT,CLOUTIERS,,+49.114826,+06.229374,1,
20319,550,NONNETIERS,,+49.114687,+06.237015,0,10156
10156,NONNE,NONNETIERS,,+49.114711,+06.236322,1,
20824,426,FEIVRES,,+49.114754,+06.240076,0,10424
10424,FEIVR,FEIVRES,,+49.114952,+06.240372,1,
20324,432,POTIERS D'ETAIN,,+49.115608,+06.243734,0,10159
10159,ETAIN,POTIERS D'ETAIN,,+49.115879,+06.243650,1,
21425,424,SERRURIERS,,+49.118616,+06.240034,0,10158
10158,SERRU,SERRURIERS,,+49.118433,+06.240051,1,
21235,903,HOPITAL SCHUMAN,,+49.123350,+06.242088,0,10600
10600,HSchu,HOPITAL SCHUMAN,,+49.123350,+06.242088,1,
20251,53,ANEMONES,,+49.094689,+06.127949,0,10123
10123,ANEMO,ANEMONES,,+49.094689,+06.127949,1,
20255,54,SAVOIE,,+49.096080,+06.127482,0,10124
10124,SAVOI,SAVOIE,,+49.096076,+06.127347,1,
20254,55,ALSACE,,+49.097586,+06.129162,0,10125
10125,ALSAC,ALSACE,,+49.097718,+06.129367,1,
20257,56,HAUT-RHELE,,+49.099033,+06.132360,0,10126
10126,HRHEL,HAUT-RHELE,,+49.099067,+06.132351,1,
20259,57,8 MAI 1945,,+49.099762,+06.138629,0,10127
10127,8MAI,8 MAI 1945,,+49.099851,+06.138506,1,
20261,58,LES FRICHES,,+49.099933,+06.141901,0,10128
10128,FRICH,LES FRICHES,,+49.100016,+06.141917,1,
20819,16,COLOMBEY,,+49.110898,+06.230490,0,10422
10422,3COLO,COLOMBEY,,+49.110906,+06.230540,1,
20320,18,LE GOULLON,,+49.108292,+06.231134,0,10157
10157,LGOUL,LE GOULLON,,+49.108292,+06.231134,1,
20820,17,COLOMBEY,,+49.110914,+06.230591,0,10422
20316,552,CLOUTIERS,,+49.114855,+06.229297,0,10155
20817,994,BOURGOGNE,,+49.114273,+06.227053,0,10421
20310,21,BORDES,,+49.114550,+06.221373,0,10152
20643,472,BERNARD,,+49.115608,+06.210108,0,10329
21157,473,GANNE,,+49.115262,+06.204143,0,10328
21155,662,PONT ROUGE,,+49.115073,+06.192005,0,10598
21153,664,EDGAR REYLE,,+49.113019,+06.192625,0,10597
20297,27,LEGOUEST,,+49.111630,+06.191360,0,10146
20013,30,GARE SNCF,,+49.112068,+06.178606,0,10002
20061,31,ST NICOLAS,,+49.113474,+06.178398,0,10027
10027,SNICO,ST NICOLAS,,+49.113474,+06.178398,1,
20001,88,REPUBLIQUE,,+49.115508,+06.174292,0,10001
20290,36,VERLAINE,,+49.109523,+06.166817,0,10143
20288,37,GENIE,,+49.106469,+06.164285,0,10142
20286,38,BOTANIQUE,,+49.103736,+06.162055,0,10141
20284,39,EUROPA COURCELLES,,+49.102123,+06.158735,0,10140
20282,41,NATION,,+49.101335,+06.154605,0,10139
20280,42,LITALDUS,,+49.099475,+06.151035,0,10138
20278,43,ST VICTOR,,+49.097991,+06.146249,0,10137
20264,507,ST QUENTIN,,+49.097133,+06.143214,0,10129
20269,70,TOURAINE,,+49.095159,+06.137307,0,10132
20267,71,ALGER,,+49.094319,+06.134770,0,10131
20265,72,ST PIERRE,,+49.093101,+06.130913,0,10130
20249,83,CONSTANTINE,,+49.091231,+06.125226,0,10121
20881,115,3  HAIES,,+49.091342,+06.119554,0,10453
20883,135,CANONPRE,,+49.089867,+06.117141,0,10454
20276,73,CITE SNCF,,+49.090607,+06.127315,0,10136
10136,CITE,CITE SNCF,,+49.090638,+06.127734,1,
20274,74,LOTIS. INDUSTRIEL,,+49.089649,+06.124102,0,10135
10135,1LOTI,LOTIS. INDUSTRIEL,,+49.089570,+06.124191,1,
20272,75,ROTONDE,,+49.087279,+06.117113,0,10134
10134,ROTON,ROTONDE,,+49.087510,+06.117701,1,
21167,904,HOPITAL SCHUMAN,,+49.123350,+06.242088,0,10600
21422,673,SERRURIERS,,+49.118251,+06.240068,0,10158
21424,674,POTIERS D'ETAIN,,+49.116151,+06.243566,0,10159
20823,425,FEIVRES,,+49.115151,+06.240668,0,10424
20318,551,NONNETIERS,,+49.114735,+06.235630,0,10156
20262,44,ST QUENTIN,,+49.097806,+06.143499,0,10129
20260,45,LES FRICHES,,+49.100099,+06.141933,0,10128
20258,46,8 MAI 1945,,+49.099941,+06.138384,0,10127
20256,47,HAUT-RHELE,,+49.099102,+06.132342,0,10126
20253,48,ALSACE,,+49.097851,+06.129572,0,10125
20252,49,SAVOIE,,+49.096073,+06.127213,0,10124
20326,50,C.E.S.,,+49.094433,+06.123785,0,10161
10161,CES,C.E.S.,,+49.094433,+06.123785,1,
20328,51,PAQUERETTES,,+49.092896,+06.124455,0,10162
10162,1PAQU,PAQUERETTES,,+49.092896,+06.124455,1,
20329,87,CONSTANTINE,,+49.091691,+06.127011,0,10121
20273,77,ROTONDE,,+49.087741,+06.118290,0,10134
20275,78,LOTIS. INDUSTRIEL,,+49.089491,+06.124281,0,10135
20277,79,CITE SNCF,,+49.090670,+06.128154,0,10136
20666,463,GUYENNE,,+49.112428,+06.218095,0,10151
20644,464,VALERY,,+49.110719,+06.219130,0,10330
10330,1VALE,VALERY,,+49.110642,+06.219327,1,
20364,215,BEAU RIVAGE,,+49.115903,+06.150830,0,10179
10179,BRV,BEAU RIVAGE,,+49.115924,+06.150905,1,
20362,216,PEPINIERES,,+49.114005,+06.154850,0,10178
10178,PEPIN,PEPINIERES,,+49.114161,+06.154696,1,
20360,217,VILLAS,,+49.112663,+06.157677,0,10177
10177,VILLA,VILLAS,,+49.112663,+06.157812,1,
20358,218,PALAIS  SPORTS,,+49.111023,+06.161439,0,10176
10176,PALAI,PALAIS  SPORTS,,+49.111140,+06.161348,1,
20109,69,PTE SERPENOISE,,+49.112599,+06.171392,0,10053
20359,203,PALAIS  SPORTS,,+49.111258,+06.161258,0,10176
20361,204,VILLAS,,+49.112664,+06.157947,0,10177
20363,205,PEPINIERES,,+49.114318,+06.154543,0,10178
20365,206,BEAU RIVAGE,,+49.115946,+06.150981,0,10179
20169,601,ST JULIEN FORT,,+49.141353,+06.206686,0,10343
10343,StFor,ST JULIEN FORT,,+49.141090,+06.206231,1,
20621,5039,VILLERS L'ORME,,+49.135127,+06.206515,0,10314
10314,2VILL,VILLERS L'ORME,,+49.135127,+06.206515,1,
20632,5057,GRIMONT,,+49.140429,+06.217495,0,10323
10323,GRIMO,GRIMONT,,+49.140429,+06.217495,1,
20686,603,MARRONNIERS,,+49.134202,+06.215343,0,10320
10320,4MARR,MARRONNIERS,,+49.134278,+06.215342,1,
20685,604,PINS,,+49.132195,+06.215446,0,10319
10319,PINS,PINS,,+49.132282,+06.215654,1,
20684,605,FRENES,,+49.131970,+06.211513,0,10318
10318,Frene,FRENES,,+49.132124,+06.211702,1,
20170,606,CARRIERES,,+49.129905,+06.207424,0,10317
10317,CARRI,CARRIERES,,+49.129895,+06.208545,1,
20670,607,MELEZES,,+49.128164,+06.203304,0,10344
10344,MELEZ,MELEZES,,+49.128007,+06.203468,1,
20672,608,AULNES,,+49.127244,+06.207678,0,10345
10345,AULNE,AULNES,,+49.127271,+06.207678,1,
20674,609,CEDRES,,+49.127401,+06.211911,0,10346
10346,CEDRE,CEDRES,,+49.127418,+06.211783,1,
20676,610,VOLO,,+49.125352,+06.206442,0,10347
10347,1VOLO,VOLO,,+49.125315,+06.206421,1,
20677,596,VOLO,,+49.125279,+06.206401,0,10347
20675,597,CEDRES,,+49.127435,+06.211656,0,10346
20673,598,AULNES,,+49.127298,+06.207678,0,10345
20671,599,MELEZES,,+49.127850,+06.203632,0,10344
20625,5042,CARRIERES,,+49.129886,+06.209666,0,10317
20626,5043,FRENES,,+49.132278,+06.211891,0,10318
20627,5044,PINS,,+49.132370,+06.215862,0,10319
20629,5045,MARRONNIERS,,+49.134355,+06.215341,0,10320
20631,5047,TILLEULS,,+49.134521,+06.209846,0,10322
10322,TILLE,TILLEULS,,+49.134521,+06.209846,1,
20630,5046,BOUZONVILLE,,+49.135426,+06.213675,0,10321
10321,3BOUZ,BOUZONVILLE,,+49.135426,+06.213675,1,
20436,546,DOLICHE,,+49.094534,+06.245755,0,10218
10218,DOLIC,DOLICHE,,+49.094574,+06.245879,1,
20434,570,CUVION,,+49.092480,+06.242702,0,10217
10217,CUVIO,CUVION,,+49.092432,+06.242765,1,
20663,227,PASSOTTE,,+49.092755,+06.240123,0,10340
10340,PASSO,PASSOTTE,,+49.092570,+06.240313,1,
20661,571,ARIANE,,+49.095468,+06.238725,0,10339
10339,ARIAN,ARIANE,,+49.095157,+06.238704,1,
20440,430,FALOGNE,,+49.097961,+06.240284,0,10220
10220,FALOG,FALOGNE,,+49.098016,+06.240264,1,
20659,431,FAURNEL,,+49.100487,+06.243099,0,10338
10338,1FAUR,FAURNEL,,+49.100173,+06.242967,1,
21399,672,ROSE GONTHIER,,+49.103605,+06.243327,0,10708
10708,ROSEG,ROSE GONTHIER,,+49.103613,+06.243257,1,
20657,298,SOLIDARITE,,+49.108065,+06.243105,0,10337
10337,SOLID,SOLIDARITE,,+49.107880,+06.243095,1,
20654,299,SEBASTOPOL,,+49.107930,+06.237890,0,10336
10336,SEBAS,SEBASTOPOL,,+49.107749,+06.238301,1,
20653,467,BORNY,,+49.107640,+06.226753,0,10335
10335,Borny,BORNY,,+49.107640,+06.226753,1,
20649,468,DEFENSE,,+49.107425,+06.222794,0,10332
10332,DEFEN,DEFENSE,,+49.107425,+06.222794,1,
20645,470,VALERY,,+49.110566,+06.219524,0,10330
20667,471,GUYENNE,,+49.112387,+06.218413,0,10151
20189,149,PONTIFFROY,,+49.127513,+06.174827,0,10090
10090,Ponti,PONTIFFROY,,+49.127087,+06.176496,1,
20185,150,STE BARBE,,+49.129069,+06.170938,0,10089
10089,SBARB,STE BARBE,,+49.128897,+06.170953,1,
20637,151,YVAN GOLL,,+49.134910,+06.169867,0,10326
10326,YGOLL,YVAN GOLL,,+49.134256,+06.169752,1,
20635,152,METZ-NORD GARE,,+49.137802,+06.167997,0,10325
10325,MNG,METZ-NORD GARE,,+49.137395,+06.168152,1,
20633,443,JOBA,,+49.141179,+06.165670,0,10324
10324,JOBA,JOBA,,+49.141306,+06.165477,1,
20247,444,BOILEAU,,+49.142901,+06.169416,0,10120
10120,5BOIL,BOILEAU,,+49.141534,+06.170832,1,
20242,449,DE CHARDIN,,+49.143952,+06.172245,0,10116
10116,DECHA,DE CHARDIN,,+49.144235,+06.172027,1,
20240,543,FONTAINES,,+49.146559,+06.171951,0,10115
10115,2FONT,FONTAINES,,+49.146484,+06.171782,1,
20103,451,ST ELOY,,+49.148186,+06.171778,0,10081
10081,STELO,ST ELOY,,+49.148186,+06.171778,1,
20238,519,RICHET,,+49.148041,+06.171433,0,10114
10114,RICHE,RICHET,,+49.148041,+06.171433,1,
20239,520,FONTAINES,,+49.146410,+06.171613,0,10115
20241,452,DE CHARDIN,,+49.144518,+06.171810,0,10116
20245,670,C.F.P.A.,,+49.142821,+06.171985,0,10119
10119,CFPA,C.F.P.A.,,+49.142821,+06.171985,1,
21163,669,RAMON,,+49.140167,+06.172249,0,10118
10118,RAMON,RAMON,,+49.140195,+06.172429,1,
20636,528,YVAN GOLL,,+49.133603,+06.169638,0,10326
20182,167,EBLE,,+49.131899,+06.169053,0,10088
10088,EBLE,EBLE,,+49.131899,+06.169053,1,
20184,168,STE BARBE,,+49.128726,+06.170968,0,10089
20188,169,PONTIFFROY,,+49.127256,+06.176198,0,10090
20754,996,MAIRIE BORNY,,+49.110763,+06.222423,0,10387
10387,5MAIR,MAIRIE BORNY,,+49.110763,+06.222423,1,
20652,521,MICHELET,,+49.107235,+06.228147,0,10334
10334,MICHE,MICHELET,,+49.107235,+06.228147,1,
20655,542,SEBASTOPOL,,+49.107569,+06.238713,0,10336
20656,509,SOLIDARITE,,+49.107696,+06.243086,0,10337
21398,671,ROSE GONTHIER,,+49.103621,+06.243188,0,10708
20658,427,FAURNEL,,+49.099859,+06.242836,0,10338
20441,428,FALOGNE,,+49.098072,+06.240245,0,10220
20660,568,ARIANE,,+49.094847,+06.238683,0,10339
20662,226,PASSOTTE,,+49.092386,+06.240503,0,10340
20435,569,CUVION,,+49.092385,+06.242829,0,10217
21202,446,C.F.P.A.,,+49.142821,+06.171985,0,10119
20244,447,RAMON,,+49.140223,+06.172610,0,10118
20243,448,DREYFUS,,+49.142275,+06.172397,0,10117
10117,DREYF,DREYFUS,,+49.142275,+06.172397,1,
20303,25,STRASBOURG,,+49.110103,+06.203215,0,10148
10148,3STRA,STRASBOURG,,+49.110103,+06.203215,1,
20300,26,ALCAN,,+49.112691,+06.197275,0,10147
10147,ALCAN,ALCAN,,+49.112691,+06.197275,1,
21068,Pon01,PONTIFFROY,,+49.126492,+06.178463,0,10090
20680,614,GOUSSAUD,,+49.124063,+06.172146,0,10349
10349,Gouss,GOUSSAUD,,+49.124063,+06.172146,1,
20246,455,BOILEAU,,+49.140167,+06.172249,0,10120
20167,456,JOBA,,+49.141433,+06.165285,0,10324
20634,524,METZ-NORD GARE,,+49.136989,+06.168307,0,10325
20166,5014,ALEXANDRE FLEMING,,+49.059413,+06.163854,0,10283
10283,AFLEM,ALEXANDRE FLEMING,,+49.059413,+06.163854,1,
20584,5016,BRAZZA,,+49.057156,+06.167665,0,10296
10296,BRAZZ,BRAZZA,,+49.057156,+06.167665,1,
20807,5017,MICHEL ANGE,,+49.059369,+06.169179,0,10415
10415,MA,MICHEL ANGE,,+49.059369,+06.169179,1,
20580,5019,FERRY,,+49.061007,+06.166711,0,10293
10293,FERRY,FERRY,,+49.061007,+06.166711,1,
20579,5020,AV. DE MAGNY,,+49.064101,+06.167127,0,10292
10292,3MAGN,AV. DE MAGNY,,+49.064101,+06.167127,1,
20577,5015,BOUTAN,,+49.067218,+06.169894,0,10291
10291,2BOUT,BOUTAN,,+49.067218,+06.169894,1,
20576,5023,AZALEES,,+49.067353,+06.168055,0,10290
10290,AZALE,AZALEES,,+49.067353,+06.168055,1,
20575,5021,BLEUETS,,+49.066503,+06.164460,0,10289
10289,1BLEU,BLEUETS,,+49.066503,+06.164460,1,
20573,5022,CAMELIAS,,+49.065990,+06.159558,0,10288
10288,CAMEL,CAMELIAS,,+49.065990,+06.159558,1,
20571,5061,GLAIEULS,,+49.064183,+06.158484,0,10287
10287,GLAIE,GLAIEULS,,+49.064183,+06.158484,1,
20569,5062,LYS,,+49.062776,+06.161541,0,10286
10286,LYS,LYS,,+49.062776,+06.161541,1,
20567,5024,PLACE DE GAULE,,+49.060909,+06.162433,0,10285
10285,DEGAU,PLACE DE GAULE,,+49.060910,+06.162563,1,
20587,5025,CENTRE COMMERCIAL,,+49.058975,+06.158888,0,10297
10297,CCIAL,CENTRE COMMERCIAL,,+49.058969,+06.159051,1,
20589,5026,LES ECOLES,,+49.058985,+06.156363,0,10298
10298,ECOLE,LES ECOLES,,+49.058897,+06.156428,1,
20591,5027,HOTEL DE VILLE,,+49.060104,+06.154189,0,10299
10299,HOTEL,HOTEL DE VILLE,,+49.060050,+06.154182,1,
20593,5028,RUE DE LA GARE,,+49.061038,+06.151602,0,10300
10300,RDLGA,RUE DE LA GARE,,+49.060969,+06.151821,1,
20597,5029,ST BRICE,,+49.060263,+06.150131,0,10302
10302,6STBR,ST BRICE,,+49.060260,+06.150034,1,
20599,5030,LARGANTIER,,+49.062809,+06.146279,0,10303
10303,3LARG,LARGANTIER,,+49.062461,+06.146314,1,
20601,5031,PAPETERIE,,+49.068538,+06.146654,0,10304
10304,PAPET,PAPETERIE,,+49.068727,+06.146813,1,
20603,5032,LES CLOS,,+49.072941,+06.147909,0,10305
10305,LESCL,LES CLOS,,+49.073382,+06.147840,1,
20605,5033,GARENNES,,+49.076569,+06.146633,0,10306
10306,6GARE,GARENNES,,+49.076544,+06.146529,1,
20607,5034,GRANGE AUX ORMES,,+49.080816,+06.146549,0,10307
10307,Grang,GRANGE AUX ORMES,,+49.080748,+06.146386,1,
20609,5035,COSTES ET BELLONTE,,+49.083426,+06.148866,0,10308
10308,COSTE,COSTES ET BELLONTE,,+49.083855,+06.149068,1,
20007,5051,REPUBLIQUE,,+49.114359,+06.172500,0,10001
20608,5001,COSTES ET BELLONTE,,+49.084284,+06.149271,0,10308
20606,5002,GRANGE AUX ORMES,,+49.080681,+06.146224,0,10307
20604,5003,GARENNES,,+49.076519,+06.146425,0,10306
20602,5004,LES CLOS,,+49.073823,+06.147771,0,10305
20600,5005,PAPETERIE,,+49.068917,+06.146973,0,10304
20598,5006,LARGANTIER,,+49.062113,+06.146350,0,10303
20596,5007,ST BRICE,,+49.060257,+06.149938,0,10302
20592,5009,RUE DE LA GARE,,+49.060901,+06.152040,0,10300
20590,5010,HOTEL DE VILLE,,+49.059997,+06.154176,0,10299
20588,5011,LES ECOLES,,+49.058810,+06.156493,0,10298
20586,5012,CENTRE COMMERCIAL,,+49.058964,+06.159215,0,10297
20566,5013,CROIX ST JOSEPH,,+49.060103,+06.162855,0,10284
10284,CSJOS,CROIX ST JOSEPH,,+49.060103,+06.162855,1,
20388,555,BUCHOZ,,+49.135243,+06.148576,0,10191
10191,BUCHO,BUCHOZ,,+49.135243,+06.148576,1,
20386,415,LA BUTTE,,+49.132891,+06.147007,0,10190
10190,LABUT,LA BUTTE,,+49.133042,+06.147204,1,
20384,416,MIRABELLES,,+49.131300,+06.145831,0,10189
10189,MIRAB,MIRABELLES,,+49.131461,+06.146003,1,
20382,417,LES VIGNES,,+49.128856,+06.145152,0,10188
10188,VIGNE,LES VIGNES,,+49.128985,+06.145182,1,
20378,332,CASTORS,,+49.128357,+06.145873,0,10186
10186,1CAST,CASTORS,,+49.128419,+06.145826,1,
20376,333,TORTUE,,+49.128288,+06.148186,0,10185
10185,TORTU,TORTUE,,+49.128337,+06.148317,1,
20374,303,ST SIMON,,+49.127661,+06.151916,0,10184
10184,STSIM,ST SIMON,,+49.127645,+06.152042,1,
20372,304,MARNE,,+49.126738,+06.153943,0,10183
10183,1MARN,MARNE,,+49.126750,+06.154041,1,
20370,221,VICTOIRE,,+49.125158,+06.153212,0,10182
10182,1VICT,VICTOIRE,,+49.125054,+06.153179,1,
20368,220,LARDEMELLE,,+49.123810,+06.149350,0,10181
10181,LARDE,LARDEMELLE,,+49.123939,+06.149688,1,
20366,228,SIGISBERT,,+49.122201,+06.148910,0,10180
10180,SIGIS,SIGISBERT,,+49.122348,+06.148858,1,
20338,183,OBERLING,,+49.101880,+06.203653,0,10166
20392,184,DALSTEIN,,+49.099730,+06.202801,0,10195
10195,1DALS,DALSTEIN,,+49.099730,+06.202801,1,
20393,186,LOTI,,+49.100805,+06.200850,0,10196
10196,2LOTI,LOTI,,+49.100805,+06.200850,1,
20394,187,LAMARTINE,,+49.100528,+06.198082,0,10197
10197,LAMAR,LAMARTINE,,+49.100528,+06.198082,1,
20395,286,CREVAUX,,+49.099615,+06.194323,0,10198
10198,CREVA,CREVAUX,,+49.099615,+06.194323,1,
20105,445,QUEULEU,,+49.099961,+06.191345,0,10105
10105,QUEUL,QUEULEU,,+49.099961,+06.191345,1,
20380,420,FELIX MARECHAL,,+49.130181,+06.138578,0,10187
10187,FLM,FELIX MARECHAL,,+49.129767,+06.138282,1,
20334,287,HESTAUX,,+49.100914,+06.191513,0,10163
10163,HESTA,HESTAUX,,+49.100914,+06.191513,1,
20336,188,GOUSSEL,,+49.101488,+06.195573,0,10164
10164,GOUSS,GOUSSEL,,+49.101488,+06.195573,1,
20337,189,CLAUDEL,,+49.101626,+06.198827,0,10165
10165,CLAUD,CLAUDEL,,+49.101626,+06.198827,1,
20367,219,SIGISBERT,,+49.122495,+06.148806,0,10180
20369,557,LARDEMELLE,,+49.124068,+06.150026,0,10181
20371,558,VICTOIRE,,+49.124951,+06.153146,0,10182
20373,222,MARNE,,+49.126762,+06.154139,0,10183
20375,223,ST SIMON,,+49.127630,+06.152168,0,10184
20377,224,TORTUE,,+49.128386,+06.148448,0,10185
20379,319,CASTORS,,+49.128481,+06.145780,0,10186
20383,421,LES VIGNES,,+49.129115,+06.145212,0,10188
20385,422,MIRABELLES,,+49.131623,+06.146175,0,10189
20387,423,LA BUTTE,,+49.133194,+06.147402,0,10190
20006,114,REPUBLIQUE,,+49.115876,+06.173383,0,10001
20481,364,JUIN,,+49.118393,+06.190042,0,10241
10241,JUIN,JUIN,,+49.118265,+06.189935,1,
20483,365,RAPHAEL LEVY,,+49.120307,+06.190807,0,10242
10242,RLEVY,RAPHAEL LEVY,,+49.120159,+06.190671,1,
20485,366,ARTILLEURS,,+49.120142,+06.193077,0,10243
10243,ARTIL,ARTILLEURS,,+49.120225,+06.193270,1,
20487,367,BERNE,,+49.122851,+06.194142,0,10244
10244,Berne,BERNE,,+49.122813,+06.194014,1,
20488,368,ALSACE LORRAINE,,+49.121230,+06.195397,0,10245
10245,1ALLO,ALSACE LORRAINE,,+49.121338,+06.195082,1,
20490,369,STOXEY,,+49.119173,+06.196262,0,10246
10246,STOXE,STOXEY,,+49.119624,+06.196237,1,
20512,370,JURA,,+49.118411,+06.200510,0,10257
10257,Jura,JURA,,+49.118456,+06.200571,1,
20493,371,PETITES SOEURS,,+49.118934,+06.204221,0,10247
10247,SOEUR,PETITES SOEURS,,+49.119016,+06.204298,1,
20495,372,METMAN,,+49.120055,+06.209572,0,10248
10248,METMA,METMAN,,+49.120078,+06.209219,1,
20497,373,MAUJEAN,,+49.120122,+06.214525,0,10249
10249,MAUJE,MAUJEAN,,+49.120182,+06.214739,1,
20499,374,GENIVAUX,,+49.122045,+06.216580,0,10250
10250,3GENI,GENIVAUX,,+49.122094,+06.216597,1,
20501,375,FOUGERES,,+49.121747,+06.219027,0,10251
10251,FOUGE,FOUGERES,,+49.122191,+06.218977,1,
20505,377,LORIENT,,+49.122605,+06.225379,0,10253
10253,4LORI,LORIENT,,+49.122555,+06.225093,1,
20507,437,JACINTHES,,+49.123898,+06.226301,0,10254
10254,JACIN,JACINTHES,,+49.123946,+06.226087,1,
20508,458,OEILLETS,,+49.125157,+06.230597,0,10255
10255,OEILL,OEILLETS,,+49.125157,+06.230597,1,
20476,419,DENY,,+49.132554,+06.142888,0,10239
10239,Deny,DENY,,+49.132554,+06.142888,1,
20510,174,PIVOINES,,+49.125901,+06.227387,0,10256
10256,PIVOI,PIVOINES,,+49.125901,+06.227387,1,
20506,378,JACINTHES,,+49.123995,+06.225873,0,10254
20504,379,LORIENT,,+49.122506,+06.224808,0,10253
20500,381,FOUGERES,,+49.122636,+06.218927,0,10251
20498,382,GENIVAUX,,+49.122143,+06.216615,0,10250
20496,383,MAUJEAN,,+49.120243,+06.214953,0,10249
20494,384,METMAN,,+49.120102,+06.208867,0,10248
20492,385,PETITES SOEURS,,+49.119098,+06.204376,0,10247
20513,386,JURA,,+49.118502,+06.200633,0,10257
20491,387,STOXEY,,+49.120076,+06.196212,0,10246
20489,388,ALSACE LORRAINE,,+49.121446,+06.194768,0,10245
20486,389,BERNE,,+49.122776,+06.193886,0,10244
20484,390,ARTILLEURS,,+49.120309,+06.193463,0,10243
20482,391,RAPHAEL LEVY,,+49.120011,+06.190535,0,10242
20480,392,JUIN,,+49.118138,+06.189829,0,10241
20519,418,FELIX MARECHAL,,+49.130500,+06.139539,0,10187
20464,401,BAUCHEZ,,+49.136500,+06.142755,0,10233
10233,BAUCH,BAUCHEZ,,+49.136508,+06.142904,1,
20462,402,ROUSSEL,,+49.135469,+06.139449,0,10232
10232,ROUSS,ROUSSEL,,+49.135489,+06.139675,1,
20460,403,CAILLOUX,,+49.134432,+06.136231,0,10231
10231,CAILL,CAILLOUX,,+49.134604,+06.136804,1,
20459,404,CLETTE,,+49.133166,+06.133541,0,10230
10230,CLETT,CLETTE,,+49.133217,+06.133700,1,
20454,324,PRES ST JACQUES,,+49.134329,+06.130716,0,10228
10228,PSJAC,PRES ST JACQUES,,+49.134329,+06.130716,1,
20106,405,CLETTE,,+49.133269,+06.133859,0,10230
20461,406,CAILLOUX,,+49.134777,+06.137378,0,10231
20463,407,ROUSSEL,,+49.135510,+06.139901,0,10232
20465,408,BAUCHEZ,,+49.136516,+06.143053,0,10233
20175,154,PATROTTE,,+49.135189,+06.160736,0,10084
10084,PATRO,PATROTTE,,+49.134819,+06.161313,1,
20810,650,CIMETIERE DE L'EST,,+49.110125,+06.199822,0,10418
10418,CDE,CIMETIERE DE L'EST,,+49.110125,+06.199822,1,
21195,651,LAVERAN,,+49.111883,+06.199988,0,10613
10613,LAVER,LAVERAN,,+49.111883,+06.199988,1,
20639,460,DURUTTE,,+49.114977,+06.192800,0,10327
10327,DURUT,DURUTTE,,+49.114977,+06.192800,1,
20181,559,DALES,,+49.132355,+06.166398,0,10087
10087,DALES,DALES,,+49.132402,+06.166145,1,
20174,1640,PATROTTE,,+49.134416,+06.162303,0,10084
20176,165,DENAIN,,+49.135360,+06.166205,0,10085
10085,DENAI,DENAIN,,+49.135641,+06.166082,1,
20421,573,CHAPPE,,+49.106308,+06.221995,0,10210
10210,2CHAP,CHAPPE,,+49.106779,+06.221404,1,
20422,301,TECHNOPOLE,,+49.104402,+06.223622,0,10211
10211,TECHN,TECHNOPOLE,,+49.104739,+06.223490,1,
20430,501,F.I.M.,,+49.092106,+06.234914,0,10215
10215,FiM,F.I.M.,,+49.092126,+06.234856,1,
20432,502,MERCY,,+49.092108,+06.240533,0,10216
10216,MERCY,MERCY,,+49.092133,+06.240309,1,
20437,146,DOLICHE,,+49.094615,+06.246003,0,10218
21081,536,TRENTE JOURS,,+49.096462,+06.245810,0,10556
10556,30JOU,TRENTE JOURS,,+49.096361,+06.245814,1,
20439,541,LA DAME,,+49.098537,+06.244019,0,10219
10219,LADAM,LA DAME,,+49.098717,+06.243659,1,
20433,269,MERCY,,+49.092159,+06.240086,0,10216
20431,302,F.I.M.,,+49.092146,+06.234798,0,10215
20423,300,TECHNOPOLE,,+49.105077,+06.223359,0,10211
20011,436,REPUBLIQUE,,+49.115721,+06.173388,0,10001
20017,334,TURGOT,,+49.109821,+06.187681,0,10106
10106,TURGO,TURGOT,,+49.109834,+06.187899,1,
20398,335,FRIANT,,+49.108280,+06.187721,0,10199
10199,1FRIA,FRIANT,,+49.108277,+06.187792,1,
20400,336,HERMITE,,+49.105768,+06.187311,0,10200
10200,HERMI,HERMITE,,+49.105810,+06.187387,1,
20402,337,COLLIGNON,,+49.104451,+06.187360,0,10201
10201,1COLL,COLLIGNON,,+49.104316,+06.187275,1,
20404,338,DUCROCQ,,+49.101329,+06.188334,0,10202
10202,DUCRO,DUCROCQ,,+49.101600,+06.188328,1,
20406,339,TIVOLI,,+49.099542,+06.189834,0,10203
10203,TIVOL,TIVOLI,,+49.099630,+06.189627,1,
20408,340,GRANDMAISON,,+49.097972,+06.194278,0,10204
10204,GRAND,GRANDMAISON,,+49.098091,+06.194389,1,
20410,341,GIRAUDOUX,,+49.097204,+06.200458,0,10205
10205,GIRAU,GIRAUDOUX,,+49.097373,+06.200068,1,
20413,513,ROEDERER,,+49.098638,+06.203798,0,10206
10206,ROEDE,ROEDERER,,+49.098334,+06.203206,1,
20415,566,GENERAL FRERE,,+49.100192,+06.206181,0,10207
10207,Gener,GENERAL FRERE,,+49.100096,+06.205828,1,
20417,572,SEULHOTTE,,+49.101414,+06.208648,0,10208
10208,SEULH,SEULHOTTE,,+49.101372,+06.208476,1,
20419,284,SYMPHONIE,,+49.104917,+06.215070,0,10209
20442,545,LE LAC,,+49.096216,+06.238373,0,10221
10221,Lac,LE LAC,,+49.096216,+06.238373,1,
20438,544,LA DAME,,+49.098897,+06.243300,0,10219
21080,530,TRENTE JOURS,,+49.096260,+06.245818,0,10556
20420,529,CHAPPE,,+49.107250,+06.220813,0,10210
20416,574,SEULHOTTE,,+49.101331,+06.208305,0,10208
20414,342,GENERAL FRERE,,+49.100000,+06.205476,0,10207
20412,514,ROEDERER,,+49.098030,+06.202615,0,10206
20411,343,GIRAUDOUX,,+49.097543,+06.199679,0,10205
20409,344,GRANDMAISON,,+49.098211,+06.194501,0,10204
20407,345,TIVOLI,,+49.099718,+06.189421,0,10203
20405,346,DUCROCQ,,+49.101871,+06.188323,0,10202
20403,347,COLLIGNON,,+49.104182,+06.187191,0,10201
20401,348,HERMITE,,+49.105852,+06.187463,0,10200
20399,349,FRIANT,,+49.108275,+06.187863,0,10199
20397,350,TURGOT,,+49.109848,+06.188117,0,10106
20448,325,STADE,,+49.131664,+06.130795,0,10225
10225,4STAD,STADE,,+49.131737,+06.131396,1,
20447,326,CROIX D'OREE,,+49.132377,+06.125455,0,10224
10224,CROIX,CROIX D'OREE,,+49.132377,+06.125455,1,
20018,327,PLAPPEVILLE,,+49.130544,+06.124422,0,10171
10171,Plapp,PLAPPEVILLE,,+49.130544,+06.124422,1,
20443,328,MOMENE,,+49.129137,+06.127592,0,10222
10222,MOMEN,MOMENE,,+49.129137,+06.127592,1,
20445,329,LA CROIX,,+49.128974,+06.130409,0,10223
10223,1LAC,LA CROIX,,+49.128974,+06.130409,1,
20450,330,BRION,,+49.129628,+06.132807,0,10226
10226,BRION,BRION,,+49.130101,+06.132966,1,
21077,376,FELIX MARECHAL,,+49.129106,+06.137785,0,10187
20452,305,MESOYERS,,+49.125935,+06.157023,0,10227
10227,MESOY,MESOYERS,,+49.125993,+06.156947,1,
20002,123,REPUBLIQUE,,+49.115655,+06.173539,0,10001
20453,297,MESOYERS,,+49.126051,+06.156872,0,10227
20458,320,FELIX MARECHAL,,+49.129281,+06.137229,0,10187
20451,321,BRION,,+49.130574,+06.133126,0,10226
20449,322,STADE,,+49.131810,+06.131997,0,10225
20616,5036,TERRES ROUGES,,+49.129912,+06.197640,0,10311
10311,TERRE,TERRES ROUGES,,+49.129853,+06.197433,1,
20618,5037,ST JULIEN EGLISE,,+49.134476,+06.202759,0,10312
10312,1EGLI,ST JULIEN EGLISE,,+49.134416,+06.202662,1,
20620,5038,CIMETIERE,,+49.137187,+06.206023,0,10313
10313,CIMET,CIMETIERE,,+49.137166,+06.205889,1,
20623,5040,ERABLES,,+49.132450,+06.205824,0,10315
10315,ERABL,ERABLES,,+49.132450,+06.205824,1,
20624,5041,HETRES,,+49.132293,+06.208659,0,10316
10316,HETRE,HETRES,,+49.132293,+06.208659,1,
20619,5048,CIMETIERE,,+49.137146,+06.205755,0,10313
20617,5049,ST JULIEN EGLISE,,+49.134357,+06.202566,0,10312
20615,5050,TERRES ROUGES,,+49.129794,+06.197226,0,10311
20942,758,VILLERS-L'ORME,,+49.151966,+06.247561,0,10486
10486,VORME,VILLERS-L'ORME,,+49.151966,+06.247561,1,
20996,760,SALETTE,,+49.152869,+06.246799,0,10518
10518,SALET,SALETTE,,+49.152869,+06.246799,1,
20940,759,VANY,,+49.156538,+06.239113,0,10485
10485,0VANY,VANY,,+49.156329,+06.239317,1,
20938,747,CHIEULLES,,+49.159406,+06.228951,0,10484
10484,CHIEU,CHIEULLES,,+49.159430,+06.228848,1,
20936,784,BREUIL,,+49.160456,+06.225804,0,10483
10483,BREUI,BREUIL,,+49.160397,+06.225813,1,
21007,815,POSTE EDF,,+49.151962,+06.213736,0,10524
10524,POSTE,POSTE EDF,,+49.151962,+06.213736,1,
20815,5066,ST JULIEN FORT,,+49.140828,+06.205776,0,10343
20813,5065,POSTE EDF (St Julien),,+49.151962,+06.213736,0,10420
10420,EDF,POSTE EDF (St Julien),,+49.151962,+06.213736,1,
21008,816,POSTE EDF,,+49.151962,+06.213736,0,10524
20937,783,BREUIL,,+49.160339,+06.225823,0,10483
20939,746,CHIEULLES,,+49.159454,+06.228745,0,10484
20941,757,VANY,,+49.156121,+06.239521,0,10485
20038,97,ST ANDRE,,+49.095017,+06.159309,0,10015
20041,98,SUGNON,,+49.094047,+06.163126,0,10016
10016,SUGNO,SUGNON,,+49.094178,+06.162731,1,
20042,99,LYAUTEY,,+49.093867,+06.167411,0,10017
10017,LYAUT,LYAUTEY,,+49.093665,+06.167713,1,
20044,531,JERUSALEM,,+49.091913,+06.167229,0,10018
10018,JERUS,JERUSALEM,,+49.091830,+06.167250,1,
20046,100,COLSON,,+49.089859,+06.166111,0,10019
10019,COLSO,COLSON,,+49.090122,+06.166309,1,
20048,539,VACONS,,+49.087508,+06.164527,0,10020
10020,VACON,VACONS,,+49.087468,+06.164413,1,
20050,540,MARGUERITE,,+49.088519,+06.159345,0,10021
10021,MARGU,MARGUERITE,,+49.088384,+06.159496,1,
20052,533,VOLONTAIRES,,+49.086598,+06.156631,0,10022
10022,VOLON,VOLONTAIRES,,+49.086557,+06.156670,1,
20054,503,ST PRIVAT,,+49.084679,+06.154756,0,10023
10023,STPRI,ST PRIVAT,,+49.084679,+06.154756,1,
20053,504,VOLONTAIRES,,+49.086516,+06.156709,0,10022
20051,547,MARGUERITE,,+49.088249,+06.159647,0,10021
20049,548,VACONS,,+49.087429,+06.164300,0,10020
20047,103,COLSON,,+49.090385,+06.166508,0,10019
20045,532,JERUSALEM,,+49.091747,+06.167272,0,10018
20043,104,LYAUTEY,,+49.093463,+06.168015,0,10017
20040,105,SUGNON,,+49.094310,+06.162337,0,10016
20668,1000,PREFECTURE,,+49.121736,+06.174354,0,10342
20716,1001,CATHEDRALE,,+49.119988,+06.174706,0,10366
10366,CATHE,CATHEDRALE,,+49.119957,+06.174595,1,
20717,1002,FABERT,,+49.118938,+06.175497,0,10367
10367,FABER,FABERT,,+49.118938,+06.175497,1,
20718,1011,PETIT PARIS,,+49.118241,+06.175291,0,10368
10368,PETIT,PETIT PARIS,,+49.118241,+06.175291,1,
20719,1012,TETE D'OR,,+49.117314,+06.177093,0,10369
10369,TETED,TETE D'OR,,+49.117314,+06.177093,1,
20734,1013,ST LOUIS,,+49.116808,+06.178356,0,10174
10174,STL,ST LOUIS,,+49.116735,+06.179038,1,
20736,1014,ROYALE,,+49.115552,+06.178874,0,10175
10175,ROYAL,ROYALE,,+49.115446,+06.178972,1,
20025,3,ST THIEBAULT,,+49.112970,+06.177281,0,10008
10008,THIEB,ST THIEBAULT,,+49.112582,+06.177928,1,
21075,797a,Centre POMPIDOU,,+49.108441,+06.180427,0,10554
20752,1005,ST THIEBAULT,,+49.112194,+06.178575,0,10008
20737,1006,ROYALE,,+49.115341,+06.179071,0,10175
20735,1007,ST LOUIS,,+49.116663,+06.179721,0,10174
20740,1008,EN FOURNIRUE,,+49.118008,+06.178726,0,10377
10377,ENFOU,EN FOURNIRUE,,+49.118008,+06.178726,1,
20741,1009,PLACE D'ARMES,,+49.119321,+06.175582,0,10003
21079,1017,CATHEDRALE,,+49.119926,+06.174484,0,10366
20223,315,CUGNOT,,+49.085555,+06.163519,0,10108
10108,CUGNO,CUGNOT,,+49.085555,+06.163519,1,
20222,351,SABLIERES,,+49.086430,+06.163806,0,10107
10107,SABLI,SABLIERES,,+49.086357,+06.163463,1,
20235,353,BLORY,,+49.087325,+06.167416,0,10113
10113,BLORY,BLORY,,+49.087286,+06.167117,1,
20231,316,LE MERCIER,,+49.088770,+06.169780,0,10112
10112,1LEME,LE MERCIER,,+49.088581,+06.169733,1,
20227,354,SCARPONE,,+49.091365,+06.169794,0,10111
10111,SCARP,SCARPONE,,+49.091405,+06.169745,1,
20214,359,BERTRAM,,+49.093282,+06.169986,0,10103
10103,1BERT,BERTRAM,,+49.093396,+06.169930,1,
20212,511,LA HORGNE,,+49.092954,+06.172783,0,10102
10102,HORGN,LA HORGNE,,+49.093126,+06.172674,1,
20210,362,4 VENTS,,+49.093858,+06.175606,0,10101
10101,QVENT,4 VENTS,,+49.093931,+06.175609,1,
20208,136,JARDINIERS,,+49.095241,+06.176491,0,10100
10100,JARDI,JARDINIERS,,+49.095270,+06.176422,1,
20206,137,LAVOIR,,+49.097251,+06.174771,0,10099
10099,LAVOI,LAVOIR,,+49.097134,+06.174831,1,
20204,138,EGLISE,,+49.099052,+06.173756,0,10098
10098,EGLIS,EGLISE,,+49.098756,+06.173013,1,
20224,139,ST PIERRE,,+49.100238,+06.175488,0,10109
10109,1PIER,ST PIERRE,,+49.100238,+06.175488,1,
20199,140,BOILVIN,,+49.103217,+06.174654,0,10094
10094,BOILV,BOILVIN,,+49.103326,+06.174718,1,
21162,997,DALES,,+49.132450,+06.165893,0,10087
20173,155,PAQUET,,+49.135095,+06.156790,0,10083
10083,PAQUE,PAQUET,,+49.135065,+06.156755,1,
20171,156,DAGA,,+49.136468,+06.156072,0,10050
10050,GDAGA,DAGA,,+49.136540,+06.155952,1,
20164,157,QUATRE BORNES,,+49.139406,+06.153482,0,10080
10080,QBORN,QUATRE BORNES,,+49.139303,+06.153457,1,
20162,158,MORLOT,,+49.141094,+06.150243,0,10079
10079,MORLO,MORLOT,,+49.141080,+06.150491,1,
20835,630,COUPILLON,,+49.141575,+06.148088,0,10430
10430,Coupi,COUPILLON,,+49.141472,+06.148104,1,
20837,631,RUCHER,,+49.145042,+06.147958,0,10431
10431,RUCHE,RUCHER,,+49.144924,+06.147897,1,
20839,632,SAULES,,+49.147658,+06.152498,0,10432
10432,1SAUL,SAULES,,+49.147636,+06.152453,1,
20831,633,WOIPPY (Hotel de v.),,+49.151293,+06.150132,0,10428
10428,WOIPP,WOIPPY (Hotel de v.),,+49.151278,+06.150061,1,
20843,634,WOIPPY CHATEAU,,+49.152574,+06.145724,0,10434
10434,5CHAT,WOIPPY CHATEAU,,+49.152732,+06.145320,1,
20068,635,LE PATIS,,+49.156250,+06.140045,0,10067
10067,WLP,LE PATIS,,+49.156250,+06.140045,1,
20842,636,WOIPPY CHATEAU,,+49.152891,+06.144917,0,10434
20830,637,WOIPPY (Hotel de v.),,+49.151263,+06.149991,0,10428
20838,638,SAULES,,+49.147614,+06.152408,0,10432
20836,639,RUCHER,,+49.144807,+06.147837,0,10431
20834,159,COUPILLON,,+49.141369,+06.148121,0,10430
20161,160,MORLOT,,+49.141066,+06.150739,0,10079
20163,161,QUATRE BORNES,,+49.139201,+06.153432,0,10080
20075,162,DAGA,,+49.136612,+06.155832,0,10050
20172,163,PAQUET,,+49.135036,+06.156721,0,10083
21160,164,PATROTTE,,+49.134853,+06.160902,0,10084
21161,166,BERNANOS,,+49.133017,+06.168145,0,10086
10086,1BERN,BERNANOS,,+49.133283,+06.168120,1,
20198,127,BOILVIN,,+49.103435,+06.174783,0,10094
20200,128,SAINT LIVIER,,+49.101246,+06.174749,0,10095
10095,LIVIE,SAINT LIVIER,,+49.101246,+06.174749,1,
20201,129,CHAPELLE,,+49.100289,+06.172633,0,10096
10096,1CHAP,CHAPELLE,,+49.100289,+06.172633,1,
20202,125,ST BERNARD,,+49.099983,+06.171216,0,10097
10097,STBER,ST BERNARD,,+49.099983,+06.171216,1,
20203,236,EGLISE,,+49.098460,+06.172271,0,10098
20205,243,LAVOIR,,+49.097018,+06.174891,0,10099
20207,255,JARDINIERS,,+49.095300,+06.176353,0,10100
20209,310,4 VENTS,,+49.094005,+06.175613,0,10101
20211,134,LA HORGNE,,+49.093299,+06.172565,0,10102
20213,312,BERTRAM,,+49.093510,+06.169875,0,10103
20228,313,SCARPONE,,+49.091445,+06.169697,0,10111
20232,314,LE MERCIER,,+49.088393,+06.169687,0,10112
20236,537,BLORY,,+49.087247,+06.166818,0,10113
20221,534,SABLIERES,,+49.086285,+06.163121,0,10107
20177,131,DENAIN,,+49.135923,+06.165960,0,10085
20178,1660,BERNANOS,,+49.133549,+06.168096,0,10086
20137,563,MEY,,+49.133892,+06.237556,0,10252
10252,MEY,MEY,,+49.133892,+06.237556,1,
20544,510,LOGES,,+49.099098,+06.158229,0,10272
10272,LOGES,LOGES,,+49.098910,+06.158711,1,
20546,517,ST LADRE,,+49.096782,+06.155238,0,10273
10273,2LADR,ST LADRE,,+49.096906,+06.155202,1,
20548,355,MERMOZ,,+49.094013,+06.152037,0,10274
10274,1MERM,MERMOZ,,+49.093771,+06.151806,1,
20550,523,BLERIOT,,+49.089999,+06.149416,0,10275
10275,BLERI,BLERIOT,,+49.089897,+06.149407,1,
20552,358,PONSARD,,+49.089645,+06.147196,0,10276
10276,2PONS,PONSARD,,+49.089598,+06.147205,1,
20554,357,SIMMINGER,,+49.090319,+06.144903,0,10277
10277,SIMMI,SIMMINGER,,+49.090216,+06.144849,1,
20556,506,COUBERTIN,,+49.091935,+06.144348,0,10278
10278,COUBE,COUBERTIN,,+49.091935,+06.144348,1,
20555,527,SIMMINGER,,+49.090114,+06.144795,0,10277
20553,526,PONSARD,,+49.089551,+06.147214,0,10276
20551,525,BLERIOT,,+49.089795,+06.149399,0,10275
20549,360,MERMOZ,,+49.093530,+06.151576,0,10274
20547,518,ST LADRE,,+49.097030,+06.155166,0,10273
20545,516,LOGES,,+49.098722,+06.159194,0,10272
20879,5067,COIN SUR SEILLE,,+49.009076,+06.159937,0,10452
10452,CSEIL,COIN SUR SEILLE,,+49.009076,+06.159937,1,
20878,5078,POURNOY LA CHETIVE,,+49.020375,+06.155452,0,10451
10451,PCHET,POURNOY LA CHETIVE,,+49.020579,+06.155288,1,
20876,5068,LE CHAVEAU,,+49.031998,+06.150907,0,10450
10450,2CHAV,LE CHAVEAU,,+49.032051,+06.150935,1,
20874,5069,COIN LES CUVRY,,+49.033538,+06.155293,0,10449
10449,COINC,COIN LES CUVRY,,+49.033541,+06.155189,1,
20872,5070,LA POMMERAIE,,+49.033430,+06.162369,0,10448
10448,POMME,LA POMMERAIE,,+49.033528,+06.162190,1,
20870,5071,CHAMPAGNE,,+49.041564,+06.160678,0,10447
10447,1CHAM,CHAMPAGNE,,+49.041414,+06.160733,1,
20880,5000,CUVRY,,+49.042993,+06.158728,0,10414
10414,Cuvry,CUVRY,,+49.042932,+06.158753,1,
21099,5080,VIGNOTTES,,+49.042010,+06.156139,0,10567
10567,vigno,VIGNOTTES,,+49.041937,+06.156125,1,
20886,712,GARE D'AUGNY,,+49.070208,+06.137694,0,10455
10455,7GARE,GARE D'AUGNY,,+49.070195,+06.137607,1,
21551,5018,PLACE DE GAULE,,+49.060911,+06.162694,0,10285
20885,701,GARE D'AUGNY,,+49.070182,+06.137521,0,10455
21098,5079,VIGNOTTES,,+49.041864,+06.156111,0,10567
20805,5072,CUVRY,,+49.042872,+06.158778,0,10414
20869,5073,CHAMPAGNE,,+49.041264,+06.160788,0,10447
20871,5074,LA POMMERAIE,,+49.033626,+06.162012,0,10448
20873,5075,COIN LES CUVRY,,+49.033545,+06.155086,0,10449
20875,5076,LE CHAVEAU,,+49.032105,+06.150964,0,10450
20877,5077,POURNOY LA CHETIVE,,+49.020783,+06.155125,0,10451
20935,737,SAULNY CENTRE,,+49.158584,+06.106055,0,10482
10482,SCENT,SAULNY CENTRE,,+49.158584,+06.106055,1,
20933,738,RUE DE METZ,,+49.155718,+06.112978,0,10481
10481,RUEDE,RUE DE METZ,,+49.155757,+06.113044,1,
20931,739,PLACE PUBLIQUE,,+49.154456,+06.118011,0,10480
10480,PUBLI,PLACE PUBLIQUE,,+49.154534,+06.118039,1,
21231,959,LAVANDIERES,,+49.148296,+06.124059,0,10630
10630,Lavan,LAVANDIERES,,+49.148340,+06.124132,1,
21232,960,LAVANDIERES,,+49.148385,+06.124206,0,10630
20932,744,PLACE PUBLIQUE,,+49.154613,+06.118068,0,10480
20934,745,RUE DE METZ,,+49.155796,+06.113110,0,10481
20846,498,ROGET,,+49.149197,+06.168863,0,10436
10436,ROGET,ROGET,,+49.149039,+06.168155,1,
21109,740,POULMAIRE,,+49.151192,+06.166926,0,10571
10571,Poulm,POULMAIRE,,+49.151142,+06.166347,1,
21106,741,JP PECHEUR,,+49.152122,+06.161751,0,10570
10570,PECHE,JP PECHEUR,,+49.152082,+06.161591,1,
21104,742,RUISSEAU,,+49.151022,+06.158542,0,10569
10569,RUISS,RUISSEAU,,+49.151067,+06.158629,1,
20832,459,GAMBETTA,,+49.149390,+06.159635,0,10429
10429,GAMBE,GAMBETTA,,+49.149233,+06.159854,1,
21171,857,WOIPPY (Gare),,+49.148682,+06.155426,0,10601
10601,WGARE,WOIPPY (Gare),,+49.148658,+06.155342,1,
21186,858,JUNGLING,,+49.148411,+06.152358,0,10602
10602,Jungl,JUNGLING,,+49.148442,+06.152532,1,
20845,441,LADONCHAMPS,,+49.153984,+06.152469,0,10435
10435,4LADO,LADONCHAMPS,,+49.154173,+06.152733,1,
20829,457,PLACE DE FRANCE,,+49.156314,+06.153220,0,10427
10427,WPF,PLACE DE FRANCE,,+49.156314,+06.153220,1,
20844,442,LADONCHAMPS,,+49.154362,+06.152998,0,10435
21185,859,JUNGLING,,+49.148473,+06.152707,0,10602
21170,860,WOIPPY (Gare),,+49.148634,+06.155258,0,10601
20833,475,GAMBETTA,,+49.149076,+06.160073,0,10429
21105,743,RUISSEAU,,+49.151112,+06.158716,0,10569
21107,855,JP PECHEUR,,+49.152043,+06.161432,0,10570
21108,856,POULMAIRE,,+49.151093,+06.165768,0,10571
20847,477,ROGET,,+49.148881,+06.167447,0,10436
20973,780,THERMES,,+49.050279,+06.183357,0,10503
10503,THERM,THERMES,,+49.050279,+06.183357,1,
20971,781,COLOMBIER,,+49.048226,+06.185612,0,10502
20969,782,POUILLY,,+49.049823,+06.188433,0,10501
21218,874,BELLEVUE,,+49.172239,+06.152838,0,10623
10623,WBELL,BELLEVUE,,+49.172239,+06.152838,1,
21221,876,SAINTE AGATHE,,+49.164260,+06.153709,0,10625
10625,steag,SAINTE AGATHE,,+49.164203,+06.153814,1,
21223,877,BRIEY,,+49.151277,+06.147213,0,10626
10626,BRIEY,BRIEY,,+49.151119,+06.147501,1,
21225,878,ARLES,,+49.145199,+06.151100,0,10627
10627,ARLES,ARLES,,+49.145686,+06.151001,1,
21226,881,ARLES,,+49.146173,+06.150903,0,10627
21224,882,BRIEY,,+49.150961,+06.147790,0,10626
21222,883,SAINTE AGATHE,,+49.164147,+06.153920,0,10625
21245,451.,St Eloy (C. Ccial),,+49.148186,+06.171778,0,10636
10636,Stelo,St Eloy (C. Ccial),,+49.148186,+06.171778,1,
21240,890,ST-REMY,,+49.173757,+06.161965,0,10633
10633,STREM,ST-REMY,,+49.173757,+06.161965,1,
21241,891,D953,,+49.162709,+06.160139,0,10634
10634,D953,D953,,+49.162728,+06.160220,1,
21391,875,ZONE HERGOTT,,+49.159781,+06.158916,0,10709
10709,HERGO,ZONE HERGOTT,,+49.159290,+06.158793,1,
21243,892,BERLANGE,,+49.155729,+06.157042,0,10635
10635,berle,BERLANGE,,+49.155934,+06.157178,1,
21244,893,BERLANGE,,+49.156139,+06.157314,0,10635
21400,884,ZONE HERGOTT,,+49.158799,+06.158671,0,10709
21242,894,D953,,+49.162748,+06.160301,0,10634
20705,3007,LILAS,,+49.095615,+06.143766,0,10360
10360,LILAS,LILAS,,+49.095649,+06.143597,1,
20703,3001,PAQUIS,,+49.101970,+06.142095,0,10359
10359,2PAQU,PAQUIS,,+49.101975,+06.141988,1,
20701,3002,VERGERS,,+49.102349,+06.145730,0,10358
10358,1VERG,VERGERS,,+49.102318,+06.145815,1,
20699,3003,CHATRIAN,,+49.103342,+06.149002,0,10357
10357,3CHAT,CHATRIAN,,+49.103301,+06.148871,1,
20696,3004,LES COUVENTS,,+49.103546,+06.152256,0,10356
10356,LCOUV,LES COUVENTS,,+49.103579,+06.152289,1,
20694,3005,MEURISSE,,+49.102278,+06.155149,0,10355
10355,MEURI,MEURISSE,,+49.102337,+06.155343,1,
20692,3006,POUGIN,,+49.100022,+06.154519,0,10354
10354,POUGI,POUGIN,,+49.100032,+06.154694,1,
20688,3008,ST EXUPERY,,+49.086988,+06.153127,0,10351
10351,EXUPE,ST EXUPERY,,+49.087056,+06.153070,1,
20180,3533,VOUERIE,,+49.085913,+06.155414,0,10350
10350,VOUER,VOUERIE,,+49.085913,+06.155414,1,
20687,3009,ST EXUPERY,,+49.087124,+06.153014,0,10351
20708,3010,JEANNE D'ARC,,+49.089257,+06.153446,0,10309
20693,3011,POUGIN,,+49.100042,+06.154870,0,10354
20695,3012,MEURISSE,,+49.102396,+06.155538,0,10355
20697,3013,LES COUVENTS,,+49.103613,+06.152323,0,10356
20698,3014,CHATRIAN,,+49.103260,+06.148740,0,10357
20700,3015,VERGERS,,+49.102288,+06.145900,0,10358
20702,3016,PAQUIS,,+49.101980,+06.141882,0,10359
20707,3017,ST QUENTIN,,+49.097827,+06.143301,0,10129
20704,3000,LILAS,,+49.095684,+06.143428,0,10360
21204,1220,BLD SEROT,,+49.121151,+06.167313,0,10618
10618,SEROT,BLD SEROT,,+49.121151,+06.167313,1,
21203,446,C.F.P.A.,,+49.142821,+06.171985,0,10119
